place_id,名稱,地址,評分,評論數,經度,緯度,行政區
ChIJbSA2TZ8XbjQRT3sk6y3kFZM,走廊倉廚 Zaolong 屏東貳號倉,900台灣屏東縣屏東市自由路548號,4.1,1714,120.4873118,22.6837131,行政區
ChIJ8xzm_SYbbjQRXPBH5wjUL3c,沐光,830台灣高雄市鳳山區文安街2號,4.8,298,120.3474873,22.6409673,行政區
ChIJIxTsRusDbjQRQNYikbZmcj4,湛露中餐廳,806台灣高雄市前鎮區新光路33號2樓,4.7,1035,120.303525,22.6112875,行政區
ChIJT1k5OlwFbjQRsThY2-hgfeI,Cho Restaurant・秋 法餐,807台灣高雄市三民區九如一路815號2樓,4.8,228,120.3204535,22.6395831,行政區
ChIJiawExX4FbjQR7JtZ-q7QRwE,就是 食販所,802台灣高雄市苓雅區林泉街18號,4.7,181,120.319439,22.623567,行政區
ChIJZQF4I-kFbjQR5vK9BN23WFg,好食 House,802台灣高雄市苓雅區民權一路55-2號號,5,13,120.3134384,22.6190588,行政區
ChIJ9WUSauMXbjQRizWru-V8hwY,阿漢私廚 (訂位版.請至少提前一天預約點餐)屏東美食 屏東私房菜 屏東餐廳推薦 勝利星村美食 屏東restaurant,900台灣屏東縣屏東市重慶路必勝巷4號,4.6,358,120.4831797,22.6779741,行政區
ChIJGxkloWoDbjQRmnibMrm9WrU,南洋食府銳記 Nanyang Restaurant Ruiji南洋美食餐廳,802台灣高雄市苓雅區四維二路118-1號,4.4,777,120.3161528,22.6215922,行政區
ChIJQzEGPtIbbjQR-Yi3glznqic,來呷飯川食堂 鳳山店,830台灣高雄市鳳山區文衡路493號,4.8,1880,120.346635,22.6415803,行政區
ChIJmzoyYv85bjQRZCQe_mBgRBQ,旁聽席（創意料理、外燴服務）,90141台灣屏東縣三地門鄉行政街9-2號,4.1,1064,120.654665,22.7153382,行政區
ChIJj6wr-9IFbjQR5LHkgkxIEq4,高雄清真潮州牛雜餐廳,802台灣高雄市苓雅區建軍路13號,4.2,1088,120.3421227,22.6282883,行政區
ChIJXVLQ5SUbbjQRq1S8m9KKhwc,39焗烤家族-鳳林店,831台灣高雄市大寮區鳳林三路440號,4.8,1443,120.3959145,22.6043213,行政區
ChIJeSN7YKkbbjQRe2G6Cz9LR60,阮的牛排,830台灣高雄市鳳山區澄清路125號,4.8,1340,120.3443634,22.631209,行政區
ChIJv32UIy4bbjQR01lRCWimVeU,桑卓主廚 無菜單料理 預約制 地中海料理 歐洲食材 起士蛋糕 高雄,830台灣高雄市鳳山區青年路二段216巷1號,4.5,376,120.3509703,22.6381877,行政區
ChIJhV8bcykbbjQRdQwrnPW7KiI,黃鵲食料研製所,830台灣高雄市鳳山區濱山街15巷1號,4.5,1283,120.3506861,22.6453082,行政區
ChIJN9li5dg7bjQRDiSk-XxqYx4,新合家歡,"No. 68號, No. 68號中正路一段三地門鄉屏東縣台灣 901",4.6,731,120.6508811,22.7124919,行政區
ChIJ56JJwMM7bjQRfYonnGQSN6I,AKAME,90241台灣屏東縣霧台鄉古茶柏安街17巷8號,4.7,853,120.6471795,22.7001315,行政區
ChIJVVVVVSUxbjQRa5ArdYYKQoA,魯魯灣餐廳/無菜單料理/預約制/原住民特色料理,902台灣屏東縣霧台鄉安街17巷13號好茶村古茶柏,4.1,288,120.6476314,22.6999318,行政區
ChIJfwqhriYFbjQRXFjlAkXhNpw,Le Cuisine,807台灣高雄市三民區建工路498號,4.7,128,120.326596,22.651122,行政區
ChIJb1K-elMbbjQRBk6mu6UuUyw,也是味商行,830台灣高雄市鳳山區凱旋路344巷7號,4.3,430,120.3445196,22.6169451,行政區
ChIJ55voOAAFbjQRFdkFfnZQNRU,尋找小餐館（7/28（一）19：45~21：45有包場，無開放現場用餐，請見諒🙇，加休7/17~22家旅，中午只開週日）,804台灣高雄市鼓山區河川街53號,4.9,173,120.2835358,22.6350518,行政區
ChIJtS7OzdU7bjQRKtFtZJFlDUs,Mathariri,903台灣屏東縣瑪家鄉風景巷200號,4.4,228,120.6479736,22.7052288,行政區
ChIJkdEy5kkbbjQRigebDG8q7rw,樂廚坊韓式料理專賣店,831台灣高雄市大寮區進學路46-6號,4.6,61,120.3940205,22.6062614,行政區
ChIJS7xkjKIEbjQR7TvifO2Er_Q,寒軒和平店,802台灣高雄市苓雅區和平一路33號1樓,4,5840,120.321728,22.620158,行政區
ChIJp_RC8ZcEbjQRWRTJ89PchwE,首爾韓國食堂,802台灣高雄市苓雅區林泉街27號,4.5,4114,120.319461,22.62334,行政區
ChIJRbAICr4EbjQRwnpPVbcffeA,九九複合式餐飲(文化中心高師大店)苓雅區人氣美食推薦午餐晚餐下午茶宵夜l義大利麵l塩酥雞l炒飯l雞排l咖哩飯l炒泡麵l鐵板麵l三明治l飲品果汁咖啡(餐飲皆可外帶外送內用),802台灣高雄市苓雅區同慶路50號文化中心高師大旁,4.7,609,120.321695,22.6278179,行政區
ChIJ1zKLDTEbbjQRym4rbW_YjzI,鴨寮街-烤鴨點心坊-鳳山一號店,830台灣高雄市鳳山區文化路139號,4.1,2253,120.3510195,22.6344462,行政區
ChIJCX9rQCUbbjQRLkBVLR8E01U,感丼現食文衡店（公休星期天）,830台灣高雄市鳳山區文衡路11號,4.7,1880,120.35772,22.632547,行政區
ChIJzaE1Sg0DbjQRPlmGqilWzvY,洲際行政酒廊,"No. 33號, 新光路前鎮區高雄市台灣 806",4.8,9,120.3034583,22.6113462,行政區
ChIJiWf-PoQbbjQRu4XktFQsVUY,大西洋複合式餐飲,831台灣高雄市大寮區鳳林三路385號,4,298,120.3968866,22.6026302,行政區
ChIJx_rn8EYDbjQRiFGpsB6hmOk,禾莊日式料理,830台灣高雄市鳳山區自強一路190號,4.8,673,120.3288874,22.5924301,行政區
ChIJ0_wedDUbbjQRy5qCvK1j62I,江北食堂風味外省麵,830台灣高雄市鳳山區光復路二段189-2號,4,1865,120.3457802,22.6292157,行政區
ChIJVTuijQ4FbjQRpWvsappYikU,三禾清豐 心臺菜（私廚/預約制）,802019台灣高雄市苓雅區江都街63號,5,112,120.3197003,22.6281057,行政區
ChIJlUUkzpEbbjQRj35H3dWc3Q4,258大餐廳（六月每週一公休）,831台灣高雄市大寮區鳳林三路358號,4.6,62,120.397161,22.6026263,行政區
ChIJGaGfs4YXbjQRVpiLNEbEY-k,國民餐廳（不定時休假 於Fb、IG 公告）建議用餐前致電詢問,900台灣屏東縣屏東市崇明三街39號,4.1,432,120.4783234,22.6820624,行政區
ChIJ3bljQwEFbjQRxO7mDSl8kqU,Ripple 西餐廳,"20樓, No. 366號明華路鼓山區高雄市台灣 804",4.1,1321,120.3022409,22.662684,行政區
ChIJgXLopKIEbjQRry-hVc2NyMg,長堤101英式茶館&歐式廚房,802台灣高雄市苓雅區和平一路101號,4.3,500,120.32112,22.621699,行政區
ChIJ-Q69Kg0bbjQROkHz1vqOJAc,簡單生活鳳林店,831台灣高雄市大寮區鳳林四路398-12號,3.9,734,120.3803855,22.6214595,行政區
ChIJk4FkXKcFbjQRCzcg79T_pWU,芳園館(最後收客為打烊前一小時),830台灣高雄市鳳山區府前路29號,4.7,617,120.3435645,22.6290606,行政區
ChIJw6muLk4DbjQR6t0AV_I-d1g,咕嚕咕嚕家うちりょうり｜高雄鳳山五甲｜人氣日本料理｜媒體報導｜豬排丼飯｜咖哩飯｜巨大恐怖料理,830台灣高雄市鳳山區五甲二路468號,4.4,1965,120.3353177,22.5978163,行政區
ChIJnWz7LJgEbjQRl0d9mKk4V_g,青木堂-苓雅店,802台灣高雄市苓雅區林泉街77號,4.8,6799,120.3177573,22.6228265,行政區
ChIJl2QPipcEbjQRzCvHLZR-I3Y,韓月食堂文化店,802台灣高雄市苓雅區林泉街49號,4.3,1001,120.3186413,22.6231206,行政區
ChIJaUUDUhsRbjQRlN0v-AEv4xI,Casa Fontana 義大利餐廳,840台灣高雄市大樹區學城路一段153號LB樓層,4.1,204,120.4024278,22.7298216,行政區
ChIJ0e_YJ5gEbjQRQPF16rpSt8E,卡司．高雄文化中心(韓義料理),802台灣高雄市苓雅區林泉街57號,4.1,1034,120.3183419,22.623021,行政區
ChIJDa_F0oEbbjQRmJsWb5dSbic,飽嘟嘟餐廳,831台灣高雄市大寮區Unnamed Road,4,33,120.3902047,22.6001585,行政區
ChIJa9JO-YobbjQRbqq7WgGZcFg,鼎膳堂-小籠湯包&水晶餃,802台灣高雄市苓雅區澄清路175號,4.9,147,120.3443433,22.6334329,行政區
ChIJR3CKhi8bbjQRJoCrjNCzBHY,柬埔寨特色料理淑萍的店,830台灣高雄市鳳山區八德路328號,4.3,171,120.3547881,22.6392495,行政區
ChIJx2o3O4QFbjQRVSU6gg0y9T8,何老大手作蔬食,830台灣高雄市鳳山區光復路二段249號,4.3,195,120.3431865,22.6293168,行政區
ChIJEVVltvMbbjQRf2S21Azn_KI,釀咖哩NiangCurry【新上市香料奶油雞肉咖哩】,830台灣高雄市鳳山區文化西路176號,4.7,390,120.3459099,22.6351482,行政區
ChIJNdxI7i0bbjQRSl2z-muA4T0,一品圓食堂,807台灣高雄市三民區文濱路49號,4.1,749,120.3483797,22.6398325,行政區
ChIJ-1chQSo7bjQRMQBMKKNyCnU,觀景樓休閒餐廳/冷氣開放/屏東三地門/三地門美食/三地門餐廳/三地門土雞城/三地門桶子雞/鱸鰻料理/泰國蝦/活魚料理/屏東景觀餐廳三地門景點/三地門網美打卡景點/三地門特色餐廳料理/三地門私房料理,901台灣屏東縣三地門鄉中正路一段75號,4.7,1044,120.6507148,22.7129968,行政區
ChIJU5nT8pIbbjQRdeoOIFZ3-ks,麥料食堂 ⚠️店休日依粉專為主 ⚠️忙碌時間無法接聽電話 ⚠️善用line訂餐｜台式家常料理｜高雄海鮮粥｜高雄肉燥飯｜鳳山美食｜衛武營美食,830台灣高雄市鳳山區澄清路85號,4.6,389,120.3442747,22.6284227,行政區
ChIJyVAMKywbbjQRMzfYtmDd2mE,鮨己越,830台灣高雄市鳳山區文龍路13號,4.6,231,120.3505275,22.6431359,行政區
ChIJfwKr25cEbjQRWQy1uEP1EtM,御書房生活藝術空間,802台灣高雄市苓雅區林泉街8巷30號,4.2,771,120.3196866,22.6244397,行政區
ChIJq0SFsYMbbjQRWYSppE69vEc,香味洋食館,831台灣高雄市大寮區進學路46-3號,4.2,165,120.3940093,22.6063169,行政區
ChIJn-GKqZwbbjQRQWPcHuzjJ6s,北平聚富樓烤鴨 大寮店,831台灣高雄市大寮區鳳林三路562號,4.3,400,120.3953649,22.6077115,行政區
ChIJsYI7ufUFbjQRh9o4VMFJ0d8,Yummy呦咪日式手作三明治｜日式早午餐｜沙拉｜輕食,802台灣高雄市苓雅區和平一路131號,4.7,333,120.3209398,22.6223117,行政區
ChIJZ4qtVCMbbjQR-BNJLwkHJKU,和樂宴會館-鳳山店(附停車場),830台灣高雄市鳳山區建國路二段88號,4.2,5017,120.3618942,22.6357168,行政區
ChIJF_aKr8oEbjQRu-KqYKJ6ic0,琴姐廚房,830台灣高雄市鳳山區光復路二段247號,4.3,336,120.3432549,22.6293141,行政區
ChIJ-4IbyHUbbjQRF_bX9c242Zo,饌記牛肉麵,831台灣高雄市大寮區鳳林四路66號,4.1,1102,120.3877093,22.615203,行政區
ChIJ--Uil5tPXTQRsiE_JwCL1vE,隱家茶寮 基隆雨都篇,200台灣基隆市仁愛區愛二路54巷11號1樓,4.8,1032,121.7428018,25.1290913,基隆市 仁愛區
ChIJuXI_TuhPXTQRrUN2yYC0n4w,巷弄有一鍋,200台灣基隆市仁愛區愛三路49巷14號1樓,4.9,2542,121.7423454,25.1284291,基隆市 仁愛區
ChIJi6r1fN1PXTQRwESatVlrVCM,A6263吳姳麵館,200台灣基隆市仁愛區愛三路21號2樓,4.4,1208,121.741991,25.127639,基隆市 仁愛區
ChIJpznddgBPXTQRja4Iq7nWSvU,燈灣米飯會社｜基隆仁愛市場必買美食推薦｜基隆外帶中餐推薦｜基隆午餐必吃｜基隆吃飯推薦,200台灣基隆市仁愛區愛三路21號2樓,4.9,54,121.7418806,25.1276344,基隆市 仁愛區
ChIJF5VZtRZOXTQRDs7o6mEfJBI,基隆「阿不拉海鮮」,200台灣基隆市仁愛區華一街18號,4.7,1000,121.7365903,25.1274584,基隆市 仁愛區
ChIJkfec3RVOXTQRa4M_rEO4Qfs,鈺刺身丼,200台灣基隆市仁愛區愛一路8號2F(D43,4.4,1053,121.7408635,25.1281725,基隆市 仁愛區
ChIJ4YWToEdMXTQRX1z1PF6ONVg,喬義思窯烤手作廚房,200台灣基隆市仁愛區仁二路236號,4.1,1784,121.7436269,25.1303744,基隆市 仁愛區
ChIJl3b24xFPXTQRDPeQG2C8VrE,邦彼諾 Bambino,200台灣基隆市仁愛區港西街4號,4.3,1398,121.7401618,25.1326966,基隆市 仁愛區
ChIJN6MwzS9PXTQRbyWRppr_oBI,御品鮮 中式套餐/各類鍋物/咖啡/飲料,"2樓, No. 63號仁三路仁愛區基隆市台灣 200",4.9,279,121.7417599,25.1291115,基隆市 仁愛區
ChIJXy_0bwdPXTQR0_cqlJNF5MI,Mr.uncle-大叔先生(公休和最新菜單請看FB或IG),200台灣基隆市仁愛區愛六路16號,4.8,504,121.7475308,25.1279138,基隆市 仁愛區
ChIJN8k0g55PXTQRT4Vce8V0T74,佬食所laoshihsuo（公休日請看臉書）,200台灣基隆市仁愛區南榮路27號2樓,4.8,329,121.7424271,25.1268653,基隆市 仁愛區
ChIJR5Kr77JPXTQRwtAxi8A_nOQ,泰炒 （泰式熱炒料理餐廳）,200台灣基隆市仁愛區仁二路211號2樓,4.8,962,121.7443445,25.1288544,基隆市 仁愛區
ChIJ4Vk_vu1PXTQRK6p3haBR098,峰鮨,200台灣基隆市仁愛區愛三路21號攤位B42,4.2,1453,121.7418027,25.1276616,基隆市 仁愛區
ChIJNZXVhRVOXTQR3PQ6Mw4YFf8,海勒牛排館 義大利麵 焗烤 燉飯 基隆牛排館,200台灣基隆市仁愛區愛一路36號1F,4.6,936,121.7419732,25.1295453,基隆市 仁愛區
ChIJm6RuHz5OXTQRuG0UPKyQo2U,大嘴巴茶坊 - 基隆廟口,200台灣基隆市仁愛區愛三路57號3樓,4.7,1945,121.7426067,25.1285903,基隆市 仁愛區
ChIJkTlkTz5OXTQR0yQzF7HACVM,定食8-基隆店 日式定食 海鮮丼專門 基隆美食 平價料理 爭鮮餐飲集團,200台灣基隆市仁愛區愛三路128號2F,4.4,1795,121.743797,25.1298746,基隆市 仁愛區
ChIJF3yRiBVOXTQRBGle2hncpp4,胡弄咖啡簡餐,200台灣基隆市仁愛區愛二路45號2樓,4.2,697,121.7420148,25.1291851,基隆市 仁愛區
ChIJvSesOmVPXTQRVDOFC8jheNo,那間居酒屋 Najian Izakaya,20044台灣基隆市仁愛區精一路9-5號,4.9,1560,121.7416341,25.1266953,基隆市 仁愛區
ChIJZxvomkBOXTQRVkKyB7_dZ5U,HND好日子美式海鮮餐廳,202台灣基隆市中正區義二路81號2樓,4.8,1494,121.7459956,25.1323048,基隆市 仁愛區
ChIJMfL80g5PXTQRy4KFB3Pr3k8,虎閣燒肉亭韓式吃到飽,200台灣基隆市仁愛區仁二路257號2.3.4樓,4.7,1441,121.7423502,25.129829,基隆市 仁愛區
ChIJWWEDB6pPXTQRPrIWiBUpMhM,Moose Get Lost 迷鹿了嗎？（我們在明德大樓二樓這～）,200台灣基隆市仁愛區愛一路50-1號,4.4,527,121.7416286,25.1301245,基隆市 仁愛區
ChIJP_Vuyz5OXTQRpPS5UE449cU,樂食意大利餐廳,200台灣基隆市仁愛區仁二路98號,4.1,513,121.7478583,25.1276584,基隆市 仁愛區
ChIJ8Qse_G1PXTQRoTWDOC-EgnI,多田酸菜魚&重慶烤魚.小龍蝦.泰國蝦料理,20047台灣基隆市仁愛區愛三路49巷38號,4.8,1682,121.7418528,25.1283349,基隆市 仁愛區
ChIJjQpgpRZOXTQRuMgnJdFOMHc,榮生魚片,200台灣基隆市仁愛區成功一路118巷3弄2號,4.2,4908,121.7373202,25.1278371,基隆市 仁愛區
ChIJY-X_jiFPXTQRWlENPlzoW1Q,晟壽司,200台灣基隆市仁愛區愛三路21號二樓A30A31,4.5,792,121.7417678,25.1277599,基隆市 仁愛區
ChIJDY5OaDxPXTQRqzJmwpaetcE,莫初餐廳,20047台灣基隆市仁愛區愛三路87號2 樓,4.1,213,121.7432063,25.1294258,基隆市 仁愛區
ChIJN_qB-xVOXTQR3yZUPMvHD5k,朱添鮮魚號,200台灣基隆市仁愛區仁四路45號,3.4,3762,121.741214,25.1280449,基隆市 仁愛區
ChIJKybdGT5OXTQRKjrGMZ9BeFk,天一香肉焿順,200台灣基隆市仁愛區仁三路27-1號,4.3,2410,121.7431986,25.1282865,基隆市 仁愛區
ChIJzaZ77bNPXTQRgRnoT_9ZOQ0,漁闆娘,200001台灣基隆市仁愛區牛仔街123.124號攤販區,4.8,313,121.7398344,25.1276769,基隆市 仁愛區
ChIJFedSHTJPXTQRM0oIwXrjDyw,燒鶴一番町 基隆廟口店,200台灣基隆市仁愛區愛五路4之1號1、2樓,4.8,1613,121.745048,25.1277385,基隆市 仁愛區
ChIJVSHUeBZOXTQRMME2nrYbQmw,紅廚私房菜,20041台灣基隆市仁爱区孝一路61號2，3樓,4.2,361,121.74127,25.130222,基隆市 仁愛區
ChIJEY7xzxVOXTQRW0q6MxNhjTs,擇食居酒屋,200台灣基隆市仁愛區孝一路23巷1弄2號,4.2,1749,121.7401531,25.1285653,基隆市 仁愛區
ChIJT5yd_hVOXTQROxoF2gj9ex0,王鼎牛排D62,200台灣基隆市仁愛區愛三路21號仁愛 市場號,4.3,582,121.740743,25.12795,基隆市 仁愛區
ChIJc_uQ8hVOXTQRpId0LKCs2wk,滿滿燒肉,200台灣基隆市仁愛區愛二路23號,4.7,1969,121.7416667,25.1286111,基隆市 仁愛區
ChIJOZyd_hVOXTQRK2Rua1DMyS0,仁愛市場,200台灣基隆市仁愛區愛三路21號,4.1,12547,121.741071,25.128054,基隆市 仁愛區
ChIJRwW3oQBPXTQRMY0y3I7Hdlc,熊一頂級燒肉-基隆東岸店(海景景觀店),200台灣基隆市仁愛區仁二路236號東岸商場 E-Square3樓,4.8,6962,121.7434046,25.13047,基隆市 仁愛區
ChIJV6W3nhVOXTQRAoo7Of2atFQ,華星牛排館,200台灣基隆市仁愛區孝一路54號,4.5,1443,121.7412303,25.1299749,基隆市 仁愛區
ChIJAQAAAEVMXTQR2wxSHrqnemc,呷尚鱻餐廳,204台灣基隆市安樂區基金三路67-1號,4.6,3574,121.6970815,25.1528889,基隆市 仁愛區
ChIJa96c_CJPXTQRDpy56hP6Cf0,暖暮甜廚(預約制一人作業餐酒館 不定期公休),200台灣基隆市仁愛區港西街17號2樓,4.7,196,121.740161,25.1333003,基隆市 仁愛區
ChIJjWlABnpOXTQRnBzpOSXE0qw,愚夫私廚 無菜單 西餐,203台灣基隆市中山區復興路240-1號,4.6,290,121.7257721,25.1471709,基隆市 仁愛區
ChIJzS8bSsKrQjQRX_w16AU7wEo,基隆仁愛市場～泰好吃,200台灣基隆市仁愛區愛三路21號A32二樓,4.1,160,121.7407056,25.1279722,基隆市 仁愛區
ChIJx08e0YhPXTQRQUWx30c2Vi4,多吃一點,200台灣基隆市仁愛區愛二路27號,4.3,574,121.7418141,25.1288141,基隆市 仁愛區
ChIJ0bKh4YdPXTQRn0TlU1f4A3w,基隆天香私房菜,202台灣基隆市中正區義一路164號,4.4,246,121.7476687,25.1357645,基隆市 仁愛區
ChIJcb3qfz9OXTQRGwbqna1-JcQ,輕鬆宴海鮮景觀餐廳,200台灣基隆市仁愛區愛一路35號2樓,4.1,416,121.7418425,25.1295601,基隆市 仁愛區
ChIJcRqYeTtPXTQR86TiYmeMdfE,ABV Bar & Kitchen 閣樓餐酒館 基隆美食 美式烤肉 煙燻牛排 美式烤肉 秀泰影城6樓 精釀啤酒 聚餐 約會 宵夜 美食,202台灣基隆市中正區信一路177號6樓,4.8,2498,121.744792,25.1309333,基隆市 仁愛區
ChIJIyMShhVOXTQRdTy0kIlfCM0,橘之堡,200台灣基隆市仁愛區愛二路43號2F,3.9,862,121.74202,25.1291615,基隆市 仁愛區
ChIJp7mnjUBOXTQRTi-lwcKFWvY,小峨嵋川菜館,202台灣基隆市中正區義一路58號,4.1,2523,121.745872,25.1330278,基隆市 仁愛區
ChIJoyqgNThOXTQRhJl8H1SXhK4,活力站蒟蒻屋,200台灣基隆市仁愛區仁一路133號,4.3,5643,121.7524337,25.1277747,基隆市 仁愛區
ChIJ9Vh9WxROXTQRzll58aA-ULg,三姐妹餐飲店,200台灣基隆市仁愛區孝四路7號,4.1,2444,121.7384342,25.1304166,基隆市 仁愛區
ChIJu16rBT5OXTQRIc3HnTxoOcw,阿華炒麵,200台灣基隆市仁愛區愛四路1-3號,4,4533,121.7432066,25.1279239,基隆市 仁愛區
ChIJiYSaZQpPXTQRVDq17ZEvzco,café clay 就日,200台灣基隆市仁愛區孝二路93巷1號3樓,4.9,154,121.7403682,25.1303883,基隆市 仁愛區
ChIJC8vb-DdOXTQReiRa3vLcrjY,苗圃義大利餐廳,201台灣基隆市信義區信二路172號,4.1,1615,121.7539118,25.1293958,基隆市 仁愛區
ChIJP1-AGNZPXTQRrwxOWqgRH2s,NONNONSAID CAFE 儂儂說。早午餐/咖啡/甜點/鬆餅/彌月禮盒,200台灣基隆市仁愛區南榮路163號,4.9,1270,121.7429895,25.1242366,基隆市 仁愛區
ChIJRfXPKxROXTQRVIvS_Kd89-c,天天鮮排骨飯,200台灣基隆市仁愛區孝三路42巷4號,3.9,4820,121.7393137,25.1298197,基隆市 仁愛區
ChIJjbSesZFPXTQRUCwTq66EOgY,漁人手作壽司,200台灣基隆市仁愛區愛一路8號攤位2樓C11,4.1,647,121.7408635,25.1281725,基隆市 仁愛區
ChIJtQmKdxVOXTQRpOiRBdGQ3QA,鳥巢咖啡,200台灣基隆市仁愛區孝一路66號2F,4.1,672,121.7416128,25.1302945,基隆市 仁愛區
ChIJgVoOw4xPXTQR4we7oI8ZroA,基隆仁愛市場-兩全天婦羅,200台灣基隆市仁愛區花台4號（仁愛市場轉角樓梯旁,4,360,121.7414843,25.1279713,基隆市 仁愛區
ChIJczEQFT5OXTQRtFZzyAk44SI,月見拉麵,20048台灣基隆市仁愛區仁三路40號2樓,4.7,1081,121.743607,25.128254,基隆市 仁愛區
ChIJM6NdoYhPXTQROYr0YezgmR0,珠媽媽海鮮粥,200台灣基隆市仁愛區孝三路28號,4.9,55,121.7391309,25.1295765,基隆市 仁愛區
ChIJdxfU8vVPXTQRnlRqutoMQEk,阿財三鮮水餃,200台灣基隆市仁愛區成功一路134巷13號1樓,4.7,67,121.7373352,25.1285876,基隆市 仁愛區
ChIJT8ABmRJPXTQR7pSdOEJBK_g,1632 Cafe & Diner,201台灣基隆市信義區義六路32號,4.8,592,121.7513587,25.1308811,基隆市 信義區
ChIJEQC3OCpPXTQRUA-tYdPVETk,小腳落 Little corner（公休請參考FB或IG）,201台灣基隆市信義區信一路141巷15號1樓,4.7,472,121.7474195,25.1298312,基隆市 信義區
ChIJ6eKEjnpPXTQRW0_ujWimJXs,無爭 • 手作料理,201台灣基隆市信義區義三路4巷14號,4.8,156,121.7469217,25.1298273,基隆市 信義區
ChIJ088vG3ZPXTQRJhv3sowwYGA,銘 燒肉,201台灣基隆市信義區深溪路152號,4.9,364,121.7826714,25.1341497,基隆市 信義區
ChIJYd7ELWNPXTQR-wMcmePIIq0,泰舍泰式料理-基隆店,202台灣基隆市中正區信二路290-1號,4.9,4618,121.7457991,25.1314343,基隆市 信義區
ChIJxTQbfxVPXTQRn-tbTVc87U4,SundayUncle星期日叔叔,201台灣基隆市信義區深溪路119號,4.8,256,121.7824626,25.1341702,基隆市 信義區
ChIJZ88pRwBPXTQRj-lLuXZ2cb4,私嶼 private island,"1樓, No. 4弄17號新豐街251巷中正區基隆市台灣 202",4.9,144,121.7886991,25.1361142,基隆市 信義區
ChIJtW0UijhOXTQRuJb6U4WR5KU,基隆港海產樓,201台灣基隆市信義區信二路181號,4.1,4391,121.7507782,25.1295617,基隆市 信義區
ChIJAb75Co1PXTQRe5dsjpLFR-A,群賢閣蔬食餐廳-基隆信義素食餐廳|蔬食料理|健康蔬食|特色蔬食|人氣餐廳|在地推薦餐廳,201台灣基隆市信義區壽山路21號,4.8,376,121.7517553,25.1337482,基隆市 信義區
ChIJu6BIQhtPXTQREeCR0I3TKq8,鍋之日手作鍋物/壽喜燒（深溪店）,201台灣基隆市信義區深溪路62號,4.9,3653,121.7824194,25.1325066,基隆市 信義區
ChIJ_zteOAlPXTQReMJ9RuEWG4s,沐廚料理所,201台灣基隆市信義區培德路2巷93號1樓,4.9,10,121.7695284,25.127329,基隆市 信義區
ChIJl2CisM5PXTQR_dwh4rryJWE,歡樂食光,201台灣基隆市信義區信二路25號,4.7,132,121.7568907,25.1289376,基隆市 信義區
ChIJOyyhHEFOXTQRfapreY3z9yI,陶板屋 基隆信一店,202台灣基隆市中正區信一路177號12F,4.7,5464,121.7448044,25.1309204,基隆市 信義區
ChIJTcyOOspPXTQRbIbs1hJbe2Y,賞鮨手作料理店,20141台灣基隆市信義區東明路2號1樓,4.6,463,121.7632932,25.1279532,基隆市 信義區
ChIJ2WRSJwBPXTQR54fgb4p6iIg,饗泰多 SIAM MORE 泰式風格餐廳 基隆店,202台灣基隆市中正區中正路3號2樓,4.8,747,121.7445699,25.1336736,基隆市 信義區
ChIJ2zwvcUZPXTQRivkMPLGswWE,RAIN DANCE 雨舞餐廳,202台灣基隆市中正區北寧路446巷51號,4.6,708,121.7989727,25.1388437,基隆市 信義區
ChIJEzvZsLVPXTQRRFAfoAzEVUA,海上鮮,201台灣基隆市信義區培德路9號,4.1,1764,121.7689022,25.1283587,基隆市 信義區
ChIJz8_rGbyrQjQRD1-qfRm5C1M,JK STUDIO 法式餐酒館 (台北信義店),110台灣台北市信義區基隆路一段147巷5弄13號,4.7,1965,121.5662123,25.0428905,基隆市 信義區
ChIJTfWPoWNNXTQRNQVNd0qUveg,逸番亭,204台灣基隆市安樂區基金一路108之19號1樓,4.8,328,121.7157118,25.1400008,基隆市 信義區
ChIJVaSC8ThOXTQRVWQGD3jbiaw,加盛日本料理,201台灣基隆市信義區信一路96巷5號201,4.6,208,121.7504376,25.1290924,基隆市 信義區
ChIJuQjoBwBPXTQRx-mM7tWkCGw,開飯川食堂,202004台灣基隆市中正區中正路3號2樓,4.7,522,121.7448147,25.134015,基隆市 信義區
ChIJDXgQDaVPXTQRajJJC0YkFZM,小米菇餐坊,201台灣基隆市信義區深美街173號,4,717,121.7779943,25.13677,基隆市 信義區
ChIJnZp76uFPXTQR-wDCU0hnnt0,檀島香港餐廳 基隆店,202台灣基隆市中正區中正路3號2樓,4.1,591,121.7451668,25.1343195,基隆市 信義區
ChIJs-Z5wtlPXTQRzLKrLgJFvMU,嶼我 Me & Island,202台灣基隆市中正區正濱路25號,4.6,393,121.7700331,25.1522914,基隆市 信義區
ChIJv8lCDzZOXTQRl4s7fffVUNg,金牌三姊妹活海產餐廳,201台灣基隆市信義區東明路134號,3.8,2189,121.759747,25.1279325,基隆市 信義區
ChIJechyXk6rQjQRvcivE2lYj6A,波 WAVE 鷹嘴豆泥屋 Hummus House,110台灣台北市信義區基隆路二段39巷8弄4號1樓,4.6,1019,121.5587879,25.0310511,基隆市 信義區
ChIJO56v-IVOXTQRHfy66sEkr_g,聖托里尼海景餐廳,203台灣基隆市中山區湖海路一段18號,4,2309,121.7252782,25.1639674,基隆市 信義區
ChIJj8lhNThPXTQRisIr816gauo,焼肉スマイル（燒肉Smile）基隆潮境公園店,202台灣基隆市中正區北寧路369巷61號2樓,4.9,12927,121.8037948,25.1448841,基隆市 信義區
ChIJN-vbHntPXTQR8vAe2Jkofrs,casa PICASSO 畢加索餐廳,202台灣基隆市中正區中正路527號,4.1,482,121.7684796,25.1526491,基隆市 信義區
ChIJmYZll0pOXTQRik36dXVYViI,天外天韓式簡餐料理,201台灣基隆市信義區東信路196號,4.3,189,121.7634693,25.1283388,基隆市 信義區
ChIJBVp1UzVPXTQRcm92F6QGwI8,涮乃葉 基隆好食城店,202台灣基隆市中正區中正路3號2樓,4.4,618,121.7455366,25.1349644,基隆市 信義區
ChIJcQLdjm5PXTQRgdmbeROLJaE,基隆港好食城,202004台灣基隆市中正區中正路3號2F,4.5,505,121.7444151,25.1333846,基隆市 信義區
ChIJNQP-d0BOXTQRTwMLbbMQTGM,TASTY西堤牛排 基隆信一店,202台灣基隆市中正區信一路177號15F,4.9,16266,121.744782,25.130947,基隆市 信義區
ChIJgZeTeMqrQjQRBURzXcm8ChU,Ho Kitchen,110台灣台北市信義區基隆路二段39巷29號,4.4,256,121.5597927,25.0305638,基隆市 信義區
ChIJ_VSCWG9PXTQRcfx7gfwiYxE,猛瘦幫輕食料理-基隆店,201台灣基隆市信義區東信路42號,4.4,85,121.7679995,25.1280451,基隆市 信義區
ChIJQycB5wNPXTQRqx80q3wFdzY,河豚很多｜義大利麵｜窯烤披薩｜下午茶｜正濱彩虹屋,202台灣基隆市中正區正濱路88號,4.1,1393,121.7695625,25.1532081,基隆市 信義區
ChIJcbBDYrtPXTQRjMqpZjWbipQ,古早風味甕仔雞,201台灣基隆市信義區深溪路3-5號,4.2,1353,121.7812075,25.1301539,基隆市 信義區
ChIJO46uGryrQjQR3yMBrqKHf4E,象廚泰式料理,110台灣台北市信義區基隆路一段147巷9號,4.4,1466,121.5662366,25.0424783,基隆市 信義區
ChIJI4ivFFJPXTQRm_cBuxOZ--I,哈基咪海鮮餐酒館,202台灣基隆市中正區義一路107號,5,974,121.7471273,25.1353625,基隆市 信義區
ChIJh9Dzg-JPXTQRl_qlLgeFXs4,蓉城酸辣粉,201台灣基隆市信義區深美街150號,4.6,190,121.7797126,25.1361703,基隆市 信義區
ChIJv79Cgq9PXTQRiKwGukUyX8k,若羚珍饌重慶麻辣火鍋,201台灣基隆市信義區教孝街83號,4.8,2665,121.7764682,25.1372965,基隆市 信義區
ChIJ_V_ZxutPXTQRiyiALA7reno,海那邊小食堂（無訂位，無固定公休日）,202008台灣基隆市中正區中正路529號,4.6,1217,121.7684825,25.1526547,基隆市 中正區
ChIJV9LS9qVPXTQR7QMuvhxRpQ8,天晴晴天,202台灣基隆市中正區中正路236號1樓,4.8,306,121.7590255,25.1408939,基隆市 中正區
ChIJtyBr8NNPXTQR2GpG4lK7OBk,小李海鮮麵,202台灣基隆市中正區北寧路389號,4.8,2055,121.8025312,25.1370249,基隆市 中正區
ChIJS9JpdQNPXTQRHibjkq_eE-g,正味食堂 地方奶奶用心美食,202台灣基隆市中正區中正路542號,4.6,174,121.764475,25.1496772,基隆市 中正區
ChIJt20vUJVPXTQRrmP8PGNA_BE,母湯Mom's Soup,202台灣基隆市中正區正濱路96號3樓,5,138,121.7694015,25.1533776,基隆市 中正區
ChIJt4R2RehPXTQRv5rwX47ggYs,二十一義,202台灣基隆市中正區中正路24號,4.4,490,121.7446323,25.1329075,基隆市 中正區
ChIJVXCK-7NPXTQRh2svpQAhSQU,525創意酒食館,202台灣基隆市中正區中正路525號,4.6,295,121.7684808,25.1526512,基隆市 中正區
ChIJj0oVsd9PXTQRVUQP91niQfc,架大碗海鮮粥•麵,202台灣基隆市中正區信三路16號,4.6,1479,121.7458343,25.1326931,基隆市 中正區
ChIJfwbbrZ5PXTQR8zRyvbWX7Y4,藏漁殿,202台灣基隆市中正區義二路35號,4.7,579,121.7454255,25.1313438,基隆市 中正區
ChIJ1fb4GMRPXTQRFDMoJvhkVa4,職人の灶咖-基隆總店,202台灣基隆市中正區新豐街361號,4.8,819,121.7863171,25.1355401,基隆市 中正區
ChIJxbLNbkVPXTQRkUtgqi2ypKU,歐義系小洋廚,202台灣基隆市中正區中正路581號,4.9,184,121.7699629,25.1520506,基隆市 中正區
ChIJWR6pwgNPXTQRPyJebMN5RiU,下麵,202台灣基隆市中正區正濱路96號3樓,4.7,116,121.7694048,25.153375,基隆市 中正區
ChIJWSupsUVOXTQR5tnien6y-Mc,金龍肉焿,202台灣基隆市中正區中船路94號,4.1,3945,121.7513903,25.1376631,基隆市 中正區
ChIJq-mvipdPXTQR1zC6A8r7DnY,食光杯 基隆八斗子｜海科館美食丨義大利麵｜燉飯焗烤｜燴飯｜消夜｜中式餐點｜披薩炸物甜品飲料｜CP美食｜潮境公園｜中正區推薦美食｜平價必吃美食｜簡餐｜,202台灣基隆市中正區漁港三街70號1樓,4.9,365,121.796491,25.1414394,基隆市 中正區
ChIJjebYPepPXTQRQUraEgk0ags,海路小廚,202台灣基隆市中正區正濱路116巷5弄1號後門,4.6,234,121.770913,25.1547942,基隆市 中正區
ChIJr01m03dPXTQReWpOIPX5HGs,Badauyao八斗邀友善餐廳(預約加官方line喔！）,202台灣基隆市中正區八斗街35號,4.6,276,121.7965443,25.1413284,基隆市 中正區
ChIJUyizjbVPXTQRaGvfYOy3Hwo,金大鋤壽喜燒-基隆店,202台灣基隆市中正區信一路177號32樓,4.8,799,121.7447729,25.1308143,基隆市 中正區
ChIJ9yjtfzdPXTQRb7yqj8My7fo,好食陳,202台灣基隆市中正區義二路52號,4.3,264,121.7458662,25.1316192,基隆市 中正區
ChIJ85HE-05PXTQRmPqGef3dRo0,渡船頭 阿信ㄟ灶咖,202台灣基隆市中正區和一路31-1號,4.4,634,121.768312,25.154362,基隆市 中正區
ChIJxT-VgEBOXTQRvvQwooADso0,酒燒創意料理,202台灣基隆市中正區義一路20巷2號,4.6,334,121.7455567,25.1321071,基隆市 中正區
ChIJf0Uw2V9PXTQRzKRlrJZPfyc,佃煮秋刀魚,202台灣基隆市中正區正濱路54號1樓,4.7,409,121.7701587,25.1527723,基隆市 中正區
ChIJuWiZbMRPXTQRsfugl79UqZk,美有計劃Cafe-寵物友善餐廳 咖啡廳 下午茶推薦 早午餐 舒芙蕾 基隆正濱漁港 正濱彩虹屋,202台灣基隆市中正區中正路752號,4.6,1430,121.76977,25.1519477,基隆市 中正區
ChIJk0La9P1OXTQRCOEGYld2k-4,竹屋小吃,202台灣基隆市中正區和一路148號,4.3,330,121.7649109,25.1550523,基隆市 中正區
ChIJ6e5w7UBOXTQRK7srBNaZ91g,湖南小館,202台灣基隆市中正區義一路68號號1樓,4,676,121.7460639,25.1331817,基隆市 中正區
ChIJHZpnBQBPXTQRADWWgl0ikCc,金春喜韓廚-基隆好食城店,202台灣基隆市中正區中正路3號2樓,4.5,201,121.7447353,25.1337352,基隆市 中正區
ChIJM7oEpP5PXTQRUDKU0IcqmJs,隆香茶室 LOONG HEONG (公休請留意IG),202台灣基隆市中正區北寧路3號,4.5,270,121.7723713,25.1510595,基隆市 中正區
ChIJuTbhx31PXTQRztD-iUoCoJA,良作居食屋,20250台灣基隆市中正區義二路190號,4.9,363,121.7478299,25.1345446,基隆市 中正區
ChIJfye6tn1PXTQRDzNwqqiodKc,十二堂,202台灣基隆市中正區正豐街93號1樓,4.3,355,121.7614037,25.141175,基隆市 中正區
ChIJWYqLhA5PXTQR1NMSzd3Kmtc,和平食堂,20246台灣基隆市中正區和一路133號,4.7,124,121.7652446,25.1548998,基隆市 中正區
ChIJ0ybWNbNPXTQRO3tjfvFvZKY,多馬和食,202台灣基隆市中正區中正路217號,4.8,136,121.7612273,25.143542,基隆市 中正區
ChIJicIii-BPXTQRDdTpENOZwMk,鵝鮮生&海鮮粥,202台灣基隆市中正區中正路603號,4.9,133,121.7708448,25.1517533,基隆市 中正區
ChIJsanNbQBPXTQRoCma2Ptu448,司令茶餐廳,202台灣基隆市中正區祥豐街46號,4.5,22,121.7622764,25.1407017,基隆市 中正區
ChIJtfORq0VOXTQRJi4RZ4K7u2M,阿芬炒麵,202台灣基隆市中正區中船路128號,4.3,630,121.751213,25.1380203,基隆市 中正區
ChIJNbDV6T9OXTQRfrMr43P9o98,雞籠海鮮樓,202台灣基隆市中正區中正路62號2樓,4,385,121.7459369,25.1348836,基隆市 中正區
ChIJVUh7S1VPXTQRHf7xj47L8EU,喜富味中日料理屋,203台灣基隆市中山區中山一路123號,4.8,386,121.7382812,25.1325453,基隆市 中山區
ChIJ4zhh3RVOXTQR4I7aEZUJpPo,謹聖廚房,203台灣基隆市中山區中華路51號,4.7,409,121.73842,25.1462191,基隆市 中山區
ChIJ8bt7fGlOXTQRQGoofnEkTy4,後山海景咖啡,203台灣基隆市中山區中山二路51巷132號,4.3,1542,121.7389318,25.1387658,基隆市 中山區
ChIJAb1-A4ROXTQRxQn-4ixT3-Q,私人島嶼 MYKONOS 外木山咖啡簡餐,203台灣基隆市中山區湖海路一段37號,4,2236,121.725713,25.163274,基隆市 中山區
ChIJBwLWqqhNXTQRJclE4zoPv0M,錢有村海鮮米粉,204台灣基隆市安樂區湖海路二段71-1號,4.5,280,121.7119627,25.1635509,基隆市 中山區
ChIJ1zYyf8hPXTQR60MfyBB895A,義家人PASTA廚房,203台灣基隆市中山區中山二路21號,4.5,200,121.74067,25.1375555,基隆市 中山區
ChIJNT_-Y4JPXTQR7hPs0WuqVsA,武鐵板燒/春燒肉,203台灣基隆市中山區中山一路255號2樓,4.9,150,121.7401748,25.1354215,基隆市 中山區
ChIJe7B6MflPXTQRlAf6OK1JhpU,佐藤お帰り-你回來了,204台灣基隆市安樂區安一路132號,4.9,743,121.733975,25.132134,基隆市 中山區
ChIJ1QQtM4hOXTQRKjU04GAwLQ0,雞籠外木山景觀咖啡,203台灣基隆市中山區協和街150之2號,4,1303,121.7323743,25.1575379,基隆市 中山區
ChIJZ1Fj0cFPXTQReNM4cpkBMks,有點義式Pasta,203台灣基隆市中山區復興路200-16號1樓,4.8,93,121.7272139,25.1463434,基隆市 中山區
ChIJOQXz9nBNXTQRsOZVvHHket8,基隆外木山烤鴨,204台灣基隆市安樂區湖海路二段140號,4.4,1299,121.7064278,25.1655201,基隆市 中山區
ChIJ5zXZJ5lPXTQRCXjw32NjyVk,小泉 海產店,203台灣基隆市中山區中山一路285號,4.3,196,121.740651,25.1361891,基隆市 中山區
ChIJp5wtORNOXTQRyxeoUl4xiHo,韓江園,203台灣基隆市中山區西定路75號,4.2,215,121.735124,25.1334287,基隆市 中山區
ChIJ48ADu7FPXTQRdfqHFgz3Vfo,Let's Poké 來吃波奇（夏威夷拌飯）,203台灣基隆市中山區中山一路129號,4.8,278,121.73828,25.132662,基隆市 中山區
ChIJH4A-xEhPXTQRdua9ZPz6eig,基隆五層豬腸湯,203台灣基隆市中山區中山二路47號,4.3,1146,121.7406608,25.137901,基隆市 中山區
ChIJw4FwW4hOXTQRKIHBWgcWn24,阿英麵店（木山凹）,203台灣基隆市中山區協和街173號1樓,3.8,607,121.7329614,25.1584341,基隆市 中山區
ChIJRWjWjD1PXTQR_UAG5VSjSgs,阿樂哈海鮮景觀餐廳,20241台灣基隆市中正區義一路18號14、15樓,4.2,265,121.7452818,25.1318511,基隆市 中山區
ChIJ3-3mIX5PXTQRcwYebW4CGFE,亨豪飯殿 炒飯/炒麵,203台灣基隆市中山區復興路115號,4.3,66,121.7263759,25.1450952,基隆市 中山區
ChIJeX1IMV5PXTQRTGeK9YHfDL0,逸品食府,203台灣基隆市中山區復興路93-5號,4.3,92,121.7259457,25.1435868,基隆市 中山區
ChIJE34pkYBNXTQR13rcOqm0vLY,芊芊食堂,203台灣基隆市中山區中和路168巷7弄18號,4.4,16,121.716074,25.1499701,基隆市 中山區
ChIJUWtwEgBPXTQRmP236KHCB3M,三坑鍋貼,203台灣基隆市中山區西定路263號,4.7,41,121.731919,25.1372612,基隆市 中山區
ChIJ3-JnefVPXTQRR40uj9_DT8E,沐川鐵板燒,203台灣基隆市中山區德安路2號,4.3,205,121.7256705,25.1490717,基隆市 中山區
ChIJYQJuWN1NXTQRYZyiMNRjXHk,陽光廚坊,204台灣基隆市安樂區基金一路135巷25號,4.8,370,121.7089714,25.1406084,基隆市 中山區
ChIJcQgLfhNOXTQRsb4bNHi9xIo,安一五郎海鮮店,203台灣基隆市中山區安一路46號,4,1239,121.736554,25.1317136,基隆市 中山區
ChIJt6a70ZNPXTQR7nAJGyW3J-c,曾豆腐（營業時間：臉書，IG）,203台灣基隆市中山區西定路99號,4.6,574,121.7349308,25.1338584,基隆市 中山區
ChIJMZ6GNHpOXTQR74ZdsFFvL9k,57熱炒,203台灣基隆市中山區復興路283號,4.3,376,121.7264243,25.1493653,基隆市 中山區
ChIJaalUlw5PXTQRp33pVm4yup0,胖老爹美式炸雞-基隆中山復興店,20346台灣基隆市中山區復興路323號,4.9,47,121.727483,25.150349,基隆市 中山區
ChIJub8tkXxPXTQRiBXCQWZSnuE,拾再健康鍋品-基隆中山熱門鍋物|特色鍋物|人氣鍋物|海鮮火鍋|平價火鍋|外帶鍋物|精緻鍋物|麻辣火鍋,203台灣基隆市中山區復興路236號,5,76,121.7259315,25.1470247,基隆市 中山區
ChIJazIqJXpOXTQRg49MdXnlXno,芳鄰涮涮鍋私房套餐,203台灣基隆市中山區復興路261號B1,4.5,561,121.7258456,25.1489652,基隆市 中山區
ChIJ20ljmXBOXTQR93Wi4_mUiUg,融好台越美食小館,203台灣基隆市中山區復興路200之18號,4.5,57,121.7270102,25.1464048,基隆市 中山區
ChIJm_5xz3xOXTQRht3e_jt9duU,祥師甕雞庄,203台灣基隆市中山區文化路215-6號,4,764,121.7303818,25.1531448,基隆市 中山區
ChIJe2HGQntPXTQRm6FT5SE12K4,薰衣草簡餐-基隆總店,204台灣基隆市安樂區麥金路231-3號,4.4,740,121.7212195,25.1220989,基隆市 中山區
ChIJcQrHdfJPXTQRQFiK7TNkQis,一麵之緣,203台灣基隆市中山區復興路15號,4.9,25,121.7268982,25.1414677,基隆市 中山區
ChIJ1Wc50vJNXTQRf5bjRY_N1ho,海之鄉海產餐廳,204台灣基隆市安樂區基金三路71號,4.6,523,121.6969493,25.1537866,基隆市 安樂區
ChIJ9w69NbZNXTQRc-3PyVqdApc,昶帝嶺餐廳,204台灣基隆市安樂區基金三路117號,4.3,2702,121.6961269,25.1558357,基隆市 安樂區
ChIJb93_kcdNXTQRyRCgb2GF7g8,海龍珠水產海鮮餐廳,204台灣基隆市安樂區基金三路71-7號,4,7268,121.6967526,25.1540735,基隆市 安樂區
ChIJX8Z7IMpNXTQR5KIutdYm3hY,樂海海鮮碳烤Club,20446台灣基隆市安樂區湖海路二段166號,4.7,1193,121.7064725,25.1664216,基隆市 安樂區
ChIJQxy8cD9NXTQRGZ1NqXHTpf4,呷霸美食小吃,204台灣基隆市安樂區基金三路71之3號,4.9,84,121.6969493,25.1537866,基隆市 安樂區
ChIJr5WUuRZOXTQRs8EJqHc9lws,新漁滿 海鮮熱炒店,200台灣基隆市安樂區安一路183號1樓,4.8,134,121.7324107,25.1323561,基隆市 安樂區
ChIJ3ZotBMhNXTQRCnKj7CtwiPY,帝龍海產餐廳,204台灣基隆市安樂區基金三路52號,4.4,751,121.697036,25.1542959,基隆市 安樂區
ChIJySFRNd1NXTQRvNZ_bNQ_zNM,明味餐廳,204台灣基隆市安樂區基金一路216號,4.2,1062,121.708178,25.142105,基隆市 安樂區
ChIJWwjKxP5NXTQRCM7peRfGeOo,合一餐廳,204台灣基隆市安樂區樂利二街62巷8號,4.3,42,121.7144717,25.1222153,基隆市 安樂區
ChIJTdD7rhNOXTQRVWnQPkPlAM8,安樂市場菜頭滷,204台灣基隆市安樂區樂一路22號,4.4,163,121.7342979,25.1314247,基隆市 安樂區
ChIJ0c5g1KVNXTQR97gFgiQ5HRU,辰·鰭壽司（休息日請看臉書公告）,204台灣基隆市安樂區基金三路87號,4.8,108,121.6961759,25.1554527,基隆市 安樂區
ChIJqUaWBhNOXTQRAAEXj5B0kDY,郭家巷頭粿仔湯,204台灣基隆市安樂區安一路100巷31號,4.3,1307,121.7342469,25.132186,基隆市 安樂區
ChIJa_gsvwZOXTQRau6P4I6Fxcc,木野和風家庭料理,204台灣基隆市安樂區安和一街2巷30號,4.2,584,121.725048,25.122636,基隆市 安樂區
ChIJ_QJ8mftNXTQR-CXTF7Iwlw0,上園海鮮熱炒,204台灣基隆市安樂區樂利三街32巷34號,4.3,223,121.712756,25.1259616,基隆市 安樂區
ChIJKw90PJ1NXTQRqJQ0WS225_0,安鰭日式料理(8:30停止供餐）,204台灣基隆市安樂區基金一路135巷27號,4.4,77,121.7090642,25.1404883,基隆市 安樂區
ChIJ6y7h-i9NXTQRRS0PObROaMk,福緣小館,204台灣基隆市安樂區樂利三街229巷2號,4.3,49,121.7147741,25.1268184,基隆市 安樂區
ChIJ04XTQeVNXTQRAJ67ciccfSQ,武嶺街麵食館,204台灣基隆市安樂區基金一路212-1號,4.5,219,121.7098381,25.1424784,基隆市 安樂區
ChIJfeCKrXFNXTQRyHkaA-9G-QY,穀得商行/不定時店休請看IG,204台灣基隆市安樂區湖海路二段146號,4.6,155,121.7062861,25.1656712,基隆市 安樂區
ChIJ3SSNXDJMXTQRsBdAWyEiWZo,金海珍自助海鮮館,204台灣基隆市安樂區湖海路二段138號,4,126,121.7064325,25.165437,基隆市 安樂區
ChIJEZteiBROXTQRvIUfsHRbyLg,古月香熬粹牛肉麵,204台灣基隆市安樂區麥金路421巷6號,4.5,2014,121.7193912,25.1247953,基隆市 安樂區
ChIJwYlMWt1NXTQRYYj4N2qrwe8,犇王牛排,204台灣基隆市安樂區基金一路135巷11-2號三樓,4.4,1062,121.7090428,25.1406734,基隆市 安樂區
ChIJ5cBhj91NXTQR_M3dOI4mk2o,野棧熱炒,204台灣基隆市安樂區基金一路131號,4.1,217,121.7119409,25.1401901,基隆市 安樂區
ChIJ4Zq7BgBNXTQR60E_wrykqYA,安樂美食館&作家紅燒牛肉麵,204台灣基隆市安樂區安樂路二段185號,4.5,40,121.723826,25.120868,基隆市 安樂區
ChIJyyfIg91NXTQRjGwOOxzeM4M,九如營養三明治（常一嚐）,204台灣基隆市安樂區基金一路133-2號,4.3,1929,121.711114,25.140526,基隆市 安樂區
ChIJA_CKGN1NXTQRxssNUE-XM6M,崎新涮涮鍋,204台灣基隆市安樂區基金一路212-2號,4.8,1131,121.7096512,25.1425646,基隆市 安樂區
ChIJYZdu7_xNXTQR4PKFJ-tuo0M,六合川菜,204台灣基隆市安樂區樂利三街134號,4.4,92,121.7160524,25.1264083,基隆市 安樂區
ChIJV5mJHK9NXTQR1kODd67tpDI,阿里麵屋天曉得,204台灣基隆市安樂區基金一路198號,4.7,76,121.7103785,25.1415547,基隆市 安樂區
ChIJAUBSHbZNXTQRo5XvTxEBfqM,泰富泰式精緻料理,204台灣基隆市安樂區武聖街66號,4.2,228,121.6967049,25.1586947,基隆市 安樂區
ChIJD5UyJYhNXTQRvb9TwgERstM,炒不停小吃,204台灣基隆市安樂區基金一路135巷21弄1號,4.6,11,121.7092786,25.1401984,基隆市 安樂區
ChIJV-2yFwJOXTQRtWZtq3ipY1U,招牌甕仔雞-麥金店,204台灣基隆市安樂區麥金路11巷1號,4.1,924,121.7257248,25.1164938,基隆市 安樂區
ChIJNTWuhudNXTQRbxLmi7I-DsM,陳姐台灣食堂,204台灣基隆市安樂區武嶺街134號,4.2,224,121.710606,25.1398838,基隆市 安樂區
ChIJsUwr3d1NXTQRvdujX4lsIIM,來一品火鍋-基隆自助式吃到飽鍋物/慶生/約會/聚餐/特色,204台灣基隆市安樂區基金一路216-25號,4.9,431,121.7077238,25.1419342,基隆市 安樂區
ChIJpWiI3YtNXTQR7zSz4dUcipw,金象泰廚 ร้านช้างทองรสไทย,204台灣基隆市安樂區基金一路212號,5,13,121.709675,25.1423999,基隆市 安樂區
ChIJU8o14WdNXTQRjRYfcbcxYkM,LaLa house,204台灣基隆市安樂區武嶺街212號,4.1,39,121.7102352,25.1398014,基隆市 安樂區
ChIJCUKEucJNXTQRV5p_OqNWsfE,郭家美食（飯，麵）,204台灣基隆市安樂區基金一路218-6號,4.2,30,121.7072829,25.1419894,基隆市 安樂區
ChIJQX1PLt5NXTQRaVBxy0GSQy8,福記牛排,204台灣基隆市安樂區基金一路108-17號,4,410,121.7158463,25.1399756,基隆市 安樂區
ChIJpfwOb6NPXTQRUmAhME11jbc,練 經濟小吃,204台灣基隆市安樂區安和一街2號,4.2,288,121.7236431,25.1217542,基隆市 安樂區
ChIJRadbM7ZNXTQRUxMADJzVTNE,喜悅健康廚房,204台灣基隆市安樂區基金三路82號,4.3,306,121.6956751,25.1569751,基隆市 安樂區
ChIJ-xRsWCxMXTQRniSD48jFIjs,海神熱炒,204台灣基隆市安樂區湖海路二段71號,3.5,549,121.7117381,25.163694,基隆市 安樂區
ChIJf-uxokpOXTQR1DABOqdUKoY,小豬食館（炒飯.炒麵.熱炒.合菜）,204台灣基隆市安樂區安和一街4巷1號,3.9,106,121.723381,25.1221219,基隆市 安樂區
ChIJn2fw49xNXTQRQ-Odsx2K_zU,海灘第一間,204台灣基隆市安樂區湖海路二段100號,4.6,60,121.7072565,25.1645374,基隆市 安樂區
ChIJ_5sPWSxMXTQR6KP0lhv3agY,啾啾咖啡-外木山店,204台灣基隆市安樂區湖海路二段101號,4.6,1625,121.7072393,25.1641683,基隆市 安樂區
ChIJuRiyF0ZPXTQRI3c6IFwfMSg,輕鬆吃-健身餐盒,204台灣基隆市安樂區安樂路二段203號,4.4,83,121.7232503,25.1205408,基隆市 安樂區
ChIJBxEngedNXTQR3xww4_GUulM,家芳小吃店,204台灣基隆市安樂區武嶺街130號,4.3,167,121.7107125,25.139967,基隆市 安樂區
ChIJB72n-jFMXTQRmptq3QJm-s8,小白屋,204台灣基隆市安樂區湖海路二段158號,3.8,330,121.7062806,25.1661335,基隆市 安樂區
ChIJpRJQ1T5PXTQRyBXku61fh7Y,聚爐益爆漿糊椒餅（安樂店）,204台灣基隆市安樂區安和一街2巷3號,4.8,17,121.7239347,25.1220701,基隆市 安樂區
ChIJrct975RPXTQRpQNyR5_Rs98,林家土地公廟米粉湯,204台灣基隆市安樂區樂一路22號,4.5,23,121.7342979,25.1314247,基隆市 安樂區
ChIJxeXhpOJNXTQRQruVxPfwZIA,阿嬌米粉湯（大武崙店）,204台灣基隆市安樂區基金一路218-4號,4.9,17,121.7075929,25.1419558,基隆市 安樂區
ChIJLVdvkf5PXTQRHj9sd4FLFOs,狀元香滷味-安樂市場,204台灣基隆市安樂區樂一路5號,4.8,25,121.734884,25.1316434,基隆市 安樂區
ChIJ53HywmWsQjQROjKiNwt-1lA,藍綠早蔬食坊 （最後點餐時間為打烊前一小時）,204台灣基隆市安樂區基金一路208巷62號1樓,4.9,54,121.708982,25.146022,基隆市 安樂區
ChIJqy5u8mUfaDQRz4lcFJG4hu8,悅讀 早午餐《高cp值早餐》平價丹麥三明治｜特色熱壓吐司｜精緻早午餐｜手作｜輕食｜團購｜學生早餐,204台灣基隆市安樂區基金一路218號,4.4,127,121.7075929,25.1419558,基隆市 安樂區
ChIJAbskdsJNXTQRXpTxxX-cVD4,牛肉德沙茶炒牛肉,204台灣基隆市安樂區基金一路365號,4.2,459,121.7042953,25.1417008,基隆市 安樂區
ChIJS7VKhwdOXTQRNVJor2pCHuI,想不到小食堂（資訊以臉書置頂文章為主）,205台灣基隆市暖暖區暖暖街379巷18號,4.6,351,121.7361735,25.0930761,基隆市 暖暖區
ChIJbReHON9RXTQRnTldLWM4m7A,暖暖的,205台灣基隆市暖暖區暖暖街379巷125號1樓,4.6,444,121.7380377,25.0933654,基隆市 暖暖區
ChIJc3NHzlhRXTQRd4SumF35Lz8,滿越緣私房料理,205台灣基隆市暖暖區過港路108號1樓,4.6,91,121.7366276,25.1065121,基隆市 暖暖區
ChIJd6WR489RXTQRRUbC5YaoAj8,暖暖の屋—老闆老老~準備【頂讓】並要退休了!!有意頂讓者請電洽,205台灣基隆市暖暖區碇內街32號,4.2,130,121.7547234,25.0976542,基隆市 暖暖區
ChIJwYPnI-ZRXTQRtjXzpL4dWGk,暖暖街米粉湯,205台灣基隆市暖暖區暖暖街24號,4.5,385,121.7384033,25.1021917,基隆市 暖暖區
ChIJefZRlTVRXTQRzWbp49SP7hM,金庫1985 (咖啡、蔬食、創業孵化器),205台灣基隆市暖暖區暖暖街570巷112號,4.9,644,121.7384025,25.0909613,基隆市 暖暖區
ChIJobFfK-9RXTQRHDbt2Rbs1eg,暖暖小館,205台灣基隆市暖暖區暖暖街159號1樓,3.7,633,121.7366075,25.1000145,基隆市 暖暖區
ChIJsfWIm-5RXTQRm8aBQ5JtkuI,搜草美食屋,205台灣基隆市暖暖區暖暖街241號,4.2,139,121.7349231,25.0977944,基隆市 暖暖區
ChIJFYmFu-hRXTQRwioBvYw5_UU,暖暖麵店,205台灣基隆市暖暖區暖暖街81號,4.4,1312,121.7384212,25.1020086,基隆市 暖暖區
ChIJy9doOKZRXTQR81ME5EKnYJk,Time 2 Eat 彈塗魚義式餐飲,205台灣基隆市暖暖區暖暖街196巷5號,4.9,194,121.7350783,25.0993827,基隆市 暖暖區
ChIJEWO-Me9RXTQRm8954CmvpXA,義棧手工窯烤披薩,205台灣基隆市暖暖區東勢街1-25號,4.4,453,121.7361083,25.1004909,基隆市 暖暖區
ChIJi_O9k89RXTQRQ0BypZuNN1Q,牛餃鏖鋒,205台灣基隆市暖暖區暖暖街215號,4.5,318,121.735318,25.0986118,基隆市 暖暖區
ChIJy26tFcVRXTQR7_5aXzRnLoM,小市場咖啡,205台灣基隆市暖暖區暖碇路36之1號,4.2,660,121.7517645,25.0970611,基隆市 暖暖區
ChIJHeB9TNBRXTQRI11sVPQOtKY,老饕牛排館,205台灣基隆市暖暖區源遠路281號之3號,4.2,231,121.7562407,25.0991615,基隆市 暖暖區
ChIJ437bsOtRXTQROOCp1YeDN10,K.D House凱蒂窩,205台灣基隆市暖暖區東勢街12號,4.5,496,121.7389027,25.0946655,基隆市 暖暖區
ChIJPZN5XMNRXTQRiTeArPQMyPY,世界活海鮮餐廳（公休日請看FB）,205台灣基隆市暖暖區源遠路129號,4.1,407,121.7475729,25.0986982,基隆市 暖暖區
ChIJw7UWXoNRXTQRQRiv5C2ovkY,暖暖牛排館,205台灣基隆市暖暖區暖暖街231號,4.2,372,121.734902,25.0981697,基隆市 暖暖區
ChIJC9F2fxpRXTQRZPVnWe-PAZs,圍兜兜廚房,205台灣基隆市暖暖區源遠路284之9號,4.6,37,121.7578125,25.0992802,基隆市 暖暖區
ChIJL9SXJqVRXTQR6jS-HYFUUZc,正三味,205台灣基隆市暖暖區東勢街6號,4.4,50,121.7364187,25.0996296,基隆市 暖暖區
ChIJkVNEHNBRXTQRZKt8IBBWDR4,小豬&寶貝咖啡工坊,20543台灣基隆市暖暖區碇內街20號,4.2,146,121.7546773,25.0981327,基隆市 暖暖區
ChIJf_M21ehRXTQRMeAiAxJiIgE,心心麵疙瘩,205台灣基隆市暖暖區東勢街6-15號,4.4,309,121.7365928,25.0997828,基隆市 暖暖區
ChIJnbjMKu9RXTQRephyfU1uWwo,大俠牛肉麵-暖暖店,205台灣基隆市暖暖區東勢街6號,4.2,1438,121.7367386,25.0996538,基隆市 暖暖區
ChIJu2DPutFRXTQR9MRxmhpEpCQ,浙川園,"282-2號, Nuannuan, 源遠路台灣 205",3.8,83,121.7574124,25.0992318,基隆市 暖暖區
ChIJufpHMsVRXTQRlzZn-FWXGL0,旺萊食府,205台灣基隆市暖暖區源遠路197號,4.2,113,121.7516972,25.0984357,基隆市 暖暖區
ChIJkRSRndhRXTQRyvVfjQHO4UI,金玉台越美食,205台灣基隆市暖暖區暖暖街223號,4.5,80,121.7351474,25.0984001,基隆市 暖暖區
ChIJcxMz74dRXTQR47x3xCylriE,喜客來平價海鮮熱炒,205台灣基隆市暖暖區暖暖街133-1號,4.8,40,121.7368644,25.0995505,基隆市 暖暖區
ChIJ03DYm-ZRXTQRujQWaHPM99w,過港義大利麵,205台灣基隆市暖暖區過港路86號,3.8,526,121.737081,25.1057745,基隆市 暖暖區
ChIJY98doNFRXTQRH0i0rXtnIQE,碇內鑫鱻熱炒,205台灣基隆市暖暖區源遠路325巷12號,4.1,73,121.7579893,25.0997208,基隆市 暖暖區
ChIJLYEuzT1RXTQR_HTC9b8Khjg,胖老闆（三點水手作坊）,205台灣基隆市暖暖區碇內街92號,4.8,9,121.7547069,25.0960629,基隆市 暖暖區
ChIJ3Vpx1ehRXTQRx7qn7R1w__g,暖暖滷味,205台灣基隆市暖暖區東勢街6-15號,4.5,62,121.7367652,25.0996374,基隆市 暖暖區
ChIJ9axv77lRXTQRdaCutanXbEc,客福來,205台灣基隆市暖暖區源遠路274號,4.5,30,121.7562861,25.0989659,基隆市 暖暖區
ChIJpxL0vdxRXTQR2wzH7M2829U,啵啵的爸,205台灣基隆市暖暖區過港路169號,5,21,121.7371023,25.105524,基隆市 暖暖區
ChIJDbSBfgFRXTQRa_sQn1RAedY,暖暖古早味什錦麵,205台灣基隆市暖暖區暖暖街35號,4,153,121.7391792,25.1024196,基隆市 暖暖區
ChIJk-Q2GSVRXTQRzkipdbUFU9c,懷舊古早味小吃-炒飯炒麵什錦麵,205台灣基隆市暖暖區碇內街196巷2號,4.7,23,121.754252,25.0913751,基隆市 暖暖區
ChIJ1wMWQUlRXTQRZhhSFCHNsR0,紫薇の鍋,205台灣基隆市暖暖區源遠路239號,4.5,311,121.7543257,25.0987617,基隆市 暖暖區
ChIJa-h4lO5RXTQRsH5jv1Exuqw,尚品鐵板燒,205台灣基隆市暖暖區暖暖街214號,3.8,368,121.73502,25.0987349,基隆市 暖暖區
ChIJdbWIxO5RXTQRqolOHPX4DEo,肚食雞 滷味,205台灣基隆市暖暖區暖暖街205號,4.2,285,121.7354089,25.098689,基隆市 暖暖區
ChIJK0gng_ZRXTQRCaNgtg2cgog,四喜 炒泡麵,205台灣基隆市暖暖區暖暖街379巷32號,4.7,15,121.7365336,25.093362,基隆市 暖暖區
ChIJuc4Ko8RRXTQRCKLPl9P4U_Q,諸城水煎包 暖暖直營店,205006台灣基隆市暖暖區東勢街28號,4.3,223,121.7388828,25.093861,基隆市 暖暖區
ChIJNTnO3MZRXTQRHO8d_1TTR3A,噗噗鍋燒,205台灣基隆市暖暖區碇內街18號,4.8,24,121.7546258,25.0980991,基隆市 暖暖區
ChIJFzaDMe9RXTQR9Q2KH1pORzI,阿福涼麵,205台灣基隆市暖暖區東勢街1之26號,3.9,431,121.736093,25.1004949,基隆市 暖暖區
ChIJ7Zy4m-5RXTQR7ef2O5UbHnw,大來粿仔湯（7/26休息一天）,205台灣基隆市暖暖區暖暖街544號一樓,4.1,261,121.7361679,25.0925975,基隆市 暖暖區
ChIJRQc587tRXTQRuRJ8Cpjr_y4,一日一日早午餐,205台灣基隆市暖暖區暖暖街379巷36號1樓,4.4,161,121.7365586,25.0933605,基隆市 暖暖區
ChIJq6AQGHlRXTQR9zggjq67qCo,阿華炒麵暖暖店,205台灣基隆市暖暖區暖暖街202號,4.3,373,121.7351529,25.0988807,基隆市 暖暖區
ChIJjeIHy2BRXTQRjfyCdUk-vn4,炒飯國度(碇內店),205台灣基隆市暖暖區碇內街11號,4.1,206,121.7547,25.0963935,基隆市 暖暖區
ChIJW9O5fgBRXTQRHjXjYwM5ew8,阿九的越南料理,205台灣基隆市暖暖區源遠路165-13號,4.2,41,121.7500451,25.0983894,基隆市 暖暖區
ChIJww_wBntRXTQRPNIkHdvPLDE,滷三鼎 排骨飯,205台灣基隆市暖暖區碇內街90號,4.4,94,121.7546751,25.0961049,基隆市 暖暖區
ChIJGStG2O5RXTQR04Jzq3jsr5Y,廖媽媽麵飯館暖暖店,205台灣基隆市暖暖區暖暖街168-8號,3.6,264,121.7360416,25.0996839,基隆市 暖暖區
ChIJqeCBM8VRXTQRlQp1m_2ZobQ,河南開封包,205台灣基隆市暖暖區源遠路211號 號,4.4,217,121.752008,25.0984175,基隆市 暖暖區
ChIJLw3WKMVRXTQRrHqyjCBeEFg,漁仔妹鍋燒麵,205台灣基隆市暖暖區暖碇路6號,4.5,73,121.7519729,25.0979945,基隆市 暖暖區
ChIJSyeco3xRXTQRDGH6fw-4hLc,YIPANPAN COFFEE 乙凡凡咖啡 基隆碇內店,205台灣基隆市暖暖區源遠路224-3號,4.8,408,121.7516259,25.0983203,基隆市 暖暖區
ChIJDUZenO5RXTQROUGhXfEJcOs,啟德素食,205台灣基隆市暖暖區暖暖街243號,4.4,201,121.7348959,25.0976711,基隆市 暖暖區
ChIJcVXsw89RXTQRQ1tMdhTKMEc,斌臭豆腐,205台灣基隆市暖暖區暖碇路187號,4.5,239,121.755439,25.0967438,基隆市 暖暖區
ChIJzRWdONBRXTQR1GjhpoVRMso,大方碳烤三明治,205台灣基隆市暖暖區源遠路271號,4.6,166,121.7554471,25.0990059,基隆市 暖暖區
ChIJdxJ8WwBRXTQRjfYSeeLNkHI,旺家平價鐵板燒,205台灣基隆市暖暖區暖暖街195號,4.5,71,121.7356256,25.098999,基隆市 暖暖區
ChIJp1b-SNBRXTQRUmUfd2ZBvkw,橋頭排骨麵碇內店,205台灣基隆市暖暖區源遠路279之9號,4.1,329,121.7560468,25.0993417,基隆市 暖暖區
ChIJkZtFws9RXTQRxFeVlUFNEuA,原味真鍋,205台灣基隆市暖暖區碇內街3號,4,233,121.7553387,25.096856,基隆市 暖暖區
ChIJxeqqdNFRXTQRiCHb4pmwmGc,欣毅旺上海小籠湯包,205台灣基隆市暖暖區源遠路325巷62號,4.7,13,121.7580046,25.1001084,基隆市 暖暖區
ChIJpX6Tdm9SXTQR0nMsw64_nfA,芳裕農場,206台灣基隆市七堵區大成街51號,4.3,1050,121.685437,25.106624,基隆市 七堵區
ChIJyaGLFSJSXTQRKjzPQ0e9BsE,宣騰莊,206台灣基隆市七堵區開元路96號,4,1219,121.7126708,25.0959165,基隆市 七堵區
ChIJY62E92ZTXTQR33Vguc5f78A,C'est Bon Bistro棒棒小餐館(一律只接受Line預約),206台灣基隆市七堵區福五街158號1樓,4.7,317,121.6981036,25.0871218,基隆市 七堵區
ChIJ-U9eO0pSXTQRrnKPwNl3gvc,芳鄰熱炒海鮮店,206台灣基隆市七堵區百六街72號,4.4,884,121.694953,25.0848582,基隆市 七堵區
ChIJVYOernhTXTQReFAbPxJXYuI,鮨聚壽司｜提前預約優先《基隆百福》,206台灣基隆市七堵區福一街113號,5,1216,121.6947591,25.0836857,基隆市 七堵區
ChIJ2-Fl7TxSXTQRhe5xvF8moNk,全家福海鮮餐廳,206台灣基隆市七堵區俊賢路49號,3.8,1213,121.706048,25.095015,基隆市 七堵區
ChIJ70-vazZSXTQRRmUs7yKExSw,封神雞-黑白切白斬雞,206台灣基隆市七堵區福五街112號,4.2,889,121.6983528,25.0860136,基隆市 七堵區
ChIJFw71kzlSXTQRpsQsEpgXeTE,通通泰式風味小吃,206台灣基隆市七堵區工建路120號,4.3,872,121.7013428,25.0907864,基隆市 七堵區
ChIJG3Ev-CFSXTQRAejmAE24tiQ,烏龍伯七堵咖哩麵,206台灣基隆市七堵區開元路62號,4.1,1585,121.7140637,25.0964742,基隆市 七堵區
ChIJDeYXFiJSXTQRy_kHcMt7z6w,山城古厝黑豆腐,206台灣基隆市七堵區開元路42號,4.5,192,121.7146971,25.0966963,基隆市 七堵區
ChIJvaBjDSJSXTQRdbLzQMOeZAY,七堵臭粿仔湯,206台灣基隆市七堵區自治街12號,4,1213,121.7126705,25.0967266,基隆市 七堵區
ChIJH0tEuYZTXTQR-7uCSjL-xfE,醺饗私嬿 訂製您的私人派對,206台灣基隆市七堵區綠葉街65巷78號,4.9,24,121.666251,25.089762,基隆市 七堵區
ChIJ81-wWR9SXTQRak9id4OMwZs,阿美麵店,206台灣基隆市七堵區崇智街2-3號,4.1,765,121.7146809,25.0970367,基隆市 七堵區
ChIJUSCn1BhSXTQRQyerUDs94Vg,桃子福州小吃,206台灣基隆市七堵區崇智街12號,4.5,298,121.7141546,25.0983548,基隆市 七堵區
ChIJ-15Q2jVSXTQR7n3y0dsme-Q,韓越異國料理,206台灣基隆市七堵區福五街72號,4,364,121.6987536,25.0845944,基隆市 七堵區
ChIJl90BKvxSXTQRBoNV8muujxo,芸郁庭園 七堵美食海鮮餐廳,206台灣基隆市七堵區華新一路38之6號,4,31,121.668168,25.089714,基隆市 七堵區
ChIJ06FbaR9SXTQRPhXXGr5yx3U,好望角義大利麵,206台灣基隆市七堵區崇禮街8號,4.3,68,121.7155257,25.0975652,基隆市 七堵區
ChIJs3Eu939SXTQRTRG8qqaWmIc,尚農尋味山房,206台灣基隆市七堵區大華三路45號,4.7,39,121.6789065,25.1250617,基隆市 七堵區
ChIJoZORPCJSXTQRyTzhShNlDD8,七堵老三無刺虱目魚,206台灣基隆市七堵區南興路91號,4,368,121.7126849,25.0965921,基隆市 七堵區
ChIJZXI6URdNXTQROUknEuXjdbA,Stephanie's Amoureux Maison史蒂芬妮甜心屋,206台灣基隆市七堵區大華三路86號,4.5,50,121.6769379,25.129035,基隆市 七堵區
ChIJERRDDmtSXTQRrFKKEYHUAjw,三歌野味,206台灣基隆市七堵區大華二路94號,4,234,121.6946298,25.1051254,基隆市 七堵區
ChIJJ9usnkpSXTQRyR9ioDNz8bs,恰恰飯麵館,206台灣基隆市七堵區福二街94號,4.3,159,121.696391,25.0816108,基隆市 七堵區
ChIJ7zeZZx9SXTQRsn-fybYU24g,極品鮮,206台灣基隆市七堵區光明路64號,3.6,352,121.7152671,25.0970541,基隆市 七堵區
ChIJF5Cb0hhSXTQRANctQyM-E1Q,七堵家傳營養三明治,206台灣基隆市七堵區南興路28號,4.6,2995,121.7144277,25.0974237,基隆市 七堵區
ChIJ4TqpESJSXTQRemZhQIbyfyQ,木子義廚坊,206台灣基隆市七堵區自治街1-4號,4,198,121.7129361,25.0964565,基隆市 七堵區
ChIJo29_BjZSXTQRGJjO4NCqGYo,麵黨,206台灣基隆市七堵區百六街112號,3.9,509,121.6970445,25.0853579,基隆市 七堵區
ChIJtVYnWFhPXTQRdbHcFMm16oA,We Are 手作餐坊/窯烤披薩,206台灣基隆市七堵區東新街1號,4.9,100,121.7150509,25.0934717,基隆市 七堵區
ChIJE0SNlEpSXTQRcGR3vIB5rPQ,莊記牛肉麵,206台灣基隆市七堵區百三街36號,4.1,708,121.6955196,25.0817111,基隆市 七堵區
ChIJFcD9yDVSXTQRxhXMLV0dDx8,小廚屋牛排請關注臉書,206台灣基隆市七堵區福五街40號,4.2,228,121.6990436,25.0835043,基隆市 七堵區
ChIJlRxi5uZTXTQRCtv98g8WgRU,初飽食堂 /基隆七堵,206台灣基隆市七堵區福二街109號,4.1,76,121.6960424,25.0829144,基隆市 七堵區
ChIJecPwOB9SXTQRegiOis2WAPU,築間幸福鍋物 基隆七堵店,206台灣基隆市七堵區實踐路240號,4,1012,121.6936882,25.0863758,基隆市 七堵區
ChIJh7AbBQBTXTQRkiklfSJ38Cg,鍋之日火鍋店/壽喜燒（七堵店）,20642台灣基隆市七堵區明德一路106號,4.9,490,121.7161443,25.0986469,基隆市 七堵區
ChIJm5f_yTVSXTQRfwfAGuW1isI,欣鍋日式涮涮鍋,206台灣基隆市七堵區福五街30號,4.2,469,121.6991136,25.0832483,基隆市 七堵區
ChIJq7VoaSFSXTQRRUUOv2DfXTE,七堵雞塊麵,206台灣基隆市七堵區東新街12號,3.9,425,121.7147234,25.0931063,基隆市 七堵區
ChIJ16s5YN9TXTQRl17d78RwV0I,九湯屋日本拉麵_百福店,206台灣基隆市七堵區百三街34號,4.4,201,121.6954571,25.0817474,基隆市 七堵區
ChIJvUWYxhhSXTQRNpUiND4jGc4,善哉善齋,206台灣基隆市七堵區永富路158號,4.4,56,121.7128249,25.0989101,基隆市 七堵區
ChIJiWowXQdSXTQR6e9-0U_XSJ4,綠竹園山薯農場,206台灣基隆市七堵區自強路147-1號,4.1,140,121.7139059,25.1181595,基隆市 七堵區
ChIJD533WJVTXTQRG6lcVQmK3QQ,永紀碗粿 肉圓,206台灣基隆市七堵區自治街30號,4.4,55,121.7130282,25.0959266,基隆市 七堵區
ChIJqbY4ArZTXTQRy0Pgpc0qHOA,余媽媽食堂,206台灣基隆市七堵區福一街187號,4.8,61,121.6942846,25.0859097,基隆市 七堵區
ChIJRciYCyFSXTQR93ghgkJ5N6E,絲麥爾美食天堂,206台灣基隆市七堵區東新街17號,4.4,95,121.7149603,25.0929822,基隆市 七堵區
ChIJV_LGGe9TXTQR--PqHmVprxU,百福米粉湯,206台灣基隆市七堵區百三街30號,4.3,26,121.6949468,25.081768,基隆市 七堵區
ChIJIQ3U9SJSXTQR5gf56XEgaeI,鴨霸王北平脆皮烤鴨 七堵店,206台灣基隆市七堵區明德一路239號,4.4,332,121.7108311,25.096004,基隆市 七堵區
ChIJs_b3AiJSXTQRsTW7H0BkDto,蘇家米苔目（七堵店）,206台灣基隆市七堵區南興路63巷10號,4.3,184,121.7137206,25.0965837,基隆市 七堵區
ChIJpf6V3n5TXTQR1KELzOe8q-w,牛阿寶牛肉麵,206002台灣基隆市七堵區永富路118號1樓,4.6,216,121.7140582,25.0991887,基隆市 七堵區
ChIJ3zJWZTVSXTQRVDRIDvj_FNE,阿秋越南小吃,206台灣基隆市七堵區百三街104號,4.4,127,121.697446,25.0818073,基隆市 七堵區
ChIJeaS7O0pSXTQRUSaKGLSb8XU,阿香麵店,206台灣基隆市七堵區福一街168號,4.2,45,121.6947785,25.0847596,基隆市 七堵區
ChIJC-48aitTXTQRTb0DrBIoKD0,香莉莎鬆餅屋,206台灣基隆市七堵區大華一路125巷48號1樓,4.7,21,121.7113546,25.1005702,基隆市 七堵區
ChIJVSJ5Ds9TXTQRNuV8qKQosqY,火風鼎小吃店,206台灣基隆市七堵區崇信街6號,3.7,260,121.7134612,25.0971944,基隆市 七堵區
ChIJ7zqynn1TXTQRKEENkJUv-gQ,蔬食小棧,206台灣基隆市七堵區自治街16號,4.8,42,121.7127452,25.0965443,基隆市 七堵區
ChIJW3kldjZSXTQRVcmU9M5mp-o,原味真鍋,206台灣基隆市七堵區福五街70號,4.1,116,121.6987142,25.0845663,基隆市 七堵區
ChIJD4kAhhZTXTQRks1PIGxyHf0,吃就對了早午晚餐,206台灣基隆市七堵區明德一路155號,3.4,69,121.7135932,25.0974581,基隆市 七堵區
ChIJhwhY_-tNXTQRVS_gMdjOloo,凱峰農場,206台灣基隆市七堵區華新二路135號Unnamed Road,4.2,32,121.6568113,25.1355526,基隆市 七堵區
ChIJIWwURIZTXTQRMKmZpwJxQ_Q,笑容滿麵養生鍋燒麵,206台灣基隆市七堵區崇智街38號,4.7,64,121.7138872,25.0989406,基隆市 七堵區
ChIJd4KRGaRTXTQRWDYg-eFD4AM,菜集口廚房,206台灣基隆市七堵區自治街18號,4.4,45,121.7127636,25.0965032,基隆市 七堵區
ChIJdapC4TVSXTQRC3BqEHhmt1I,基隆漁壽司-店休日請參考FB粉絲頁,206台灣基隆市七堵區福五街18號,4.6,295,121.6993733,25.0829508,基隆市 七堵區
ChIJOWJerVdTXTQRJ_R0yDKa-Lg,易粒堡早餐店,206台灣基隆市七堵區明德二路4號,4.8,114,121.7066231,25.0904249,基隆市 七堵區
ChIJQ9fq6hhSXTQR12H4_f8I_ew,七堵熱炒店,206台灣基隆市七堵區永富路166號,4.1,75,121.7123657,25.0987475,基隆市 七堵區
ChIJBbS9LUZTXTQR5anrk1RE4zY,基隆市七堵室內兒童樂園,206台灣基隆市七堵區光明路21號6樓,4.9,1301,121.7164851,25.097668,基隆市 七堵區
ChIJ-d9e425TXTQR_ROGaA7W42s,七堵小籠包,206台灣基隆市七堵區南興路38號,4.3,38,121.7141512,25.097301,基隆市 七堵區
ChIJIY1idEpSXTQReAcw3XzIPTM,百福鐵板燒,206台灣基隆市七堵區百五街24號,3.9,200,121.6964244,25.0837691,基隆市 七堵區
ChIJz_UT0p-pQjQRrpA4MLmPo-A,詩篇咖啡餐廳Psalms Cafe & Restaurant,100台灣台北市中正區中山南路20號B1,4.7,3045,121.5166702,25.0371454,台北市 中正區
ChIJC8ObMXqpQjQRXnbI0Upn_4Y,大嗑西式餐館,100台灣台北市中正區濟南路二段18-3號,4.6,2781,121.5282306,25.0409802,台北市 中正區
ChIJmwpiaz6pQjQRYyvkztdE-tA,晴天廚房,100台灣台北市中正區寧波東街11-2號,4.7,1205,121.5201389,25.0328509,台北市 中正區
ChIJJ1Hcl7OpQjQR3Aj7-220DyA,山上走走 日式燒肉台北華山店,100台灣台北市中正區金山南路一段8號,4.9,13581,121.5294009,25.0422789,台北市 中正區
ChIJ_arDipWpQjQR2q2yV467ABY,overthink 餐飲小吃部,100台灣台北市中正區廈門街34巷2號1樓,4.8,1820,121.5173134,25.0257769,台北市 中正區
ChIJu98loqipQjQRF3IXpB6aGI8,雙月食品社 濟南店,100台灣台北市中正區濟南路一段7號1樓,4.9,21891,121.5219127,25.0427329,台北市 中正區
ChIJJwMI43OpQjQRwwiSvnmKVyk,蘇杭餐廳 濟南店,100台灣台北市中正區濟南路一段2-1號,4.3,3468,121.519646,25.043022,台北市 中正區
ChIJz--EZiipQjQRRjvTXqMelPY,芝生食堂 忠孝新生店,100台灣台北市中正區忠孝東路二段134巷1號,4.3,2306,121.5317516,25.0416448,台北市 中正區
ChIJtT-8VKOpQjQRRpmHnNwXNog,新東南海鮮餐廳 汀州店,100台灣台北市中正區汀州路一段105號,4.3,11731,121.5087358,25.0289418,台北市 中正區
ChIJsUK9SwupQjQRY4hWM4SGPj4,藝奇,100台灣台北市中正區衡陽路52號,4.7,9728,121.5120889,25.0420806,台北市 中正區
ChIJFYxL_1upQjQRjGl7CEUZE-g,台北美味小館,100台灣台北市中正區林森南路61巷17號,4.1,956,121.5228709,25.0397204,台北市 中正區
ChIJ1Tl3NsCpQjQRJOPnahxr1Cs,大樹義麵坊-2025平價排隊美食 台北中正義大利麵 焗烤 商業午餐 外送推薦 熱門義式料理餐廳 訂位推薦 團體學校安親班訂餐外送 聚餐包場 臺大醫院 中正紀念堂附近美食 PTT Dcard,100台灣台北市中正區林森南路45-1號,4.6,713,121.5222545,25.040394,台北市 中正區
ChIJM_1jMXupQjQRYOTnIHJY2uA,一碗來TaiwanMama,"100台灣台北市中正區八德路一段1號中4D, 華山1914文創園區內 中4D館",4.2,1218,121.5295071,25.0447834,台北市 中正區
ChIJMUqmM3OpQjQRTKkB0Ue1hHA,翡冷翠義式餐廳,100台灣台北市中正區漢口街一段15號1樓,4.6,4927,121.514443,25.0452935,台北市 中正區
ChIJt0RG_NOpQjQRfvE-PaKcVYc,禾多餐酒館 台大徐州店 Herdor bistro 庭園餐廳 義式餐廳,100台灣台北市中正區徐州路42號,4.6,1109,121.5237763,25.0405173,台北市 中正區
ChIJI9qVUZ-pQjQRJilzwIDYucI,香色 XIANG SE,100台灣台北市中正區湖口街1-2號,4.2,1569,121.5150211,25.0327878,台北市 中正區
ChIJm-QuVXCpQjQR-3ze0o0Fivw,Nola Kitchen 台北林森店(二號巷子口內、喜來登飯店後方),100台灣台北市中正區林森南路2號,4.4,2330,121.5231058,25.0445092,台北市 中正區
ChIJe9CIoF2pQjQRN-graqda-Ds,希臘左巴-古亭店,100台灣台北市中正區羅斯福路二段66巷10號,4.5,2957,121.5211721,25.0274445,台北市 中正區
ChIJ9667I7OrQjQR7X-ZvFyBZsg,Taste Test 試試工作室 x CF,10054台灣台北市中正區杭州南路一段63號1樓,4.7,1402,121.5259587,25.0403475,台北市 中正區
ChIJN8tQkZCpQjQR-ZVTa7p1A3A,野草居食屋,100台灣台北市中正區同安街28巷1號,4.5,2381,121.5217095,25.0247991,台北市 中正區
ChIJX09S9XCpQjQRPaixaaRO7i0,Petit France 小法國餐館,100台灣台北市中正區青島東路21-4號1樓,4.5,1288,121.5241585,25.0438525,台北市 中正區
ChIJw-pKHn6pQjQRfnP1ju0uDys,新新生 Xin Xin Sheng ( 沒有訂位服務，敬請見諒🙏）,100台灣台北市中正區濟南路二段48巷3號1樓,4.6,746,121.5310428,25.0400349,台北市 中正區
ChIJ30uGv7-pQjQRPpzonaRvoGo,蓋子普拉斯小餐館-新生店,106台灣台北市大安區忠孝東路三段10巷22號,4.7,2234,121.533344,25.0407112,台北市 中正區
ChIJf4YzfnKpQjQRlr3nfrNxQx0,台北東一排骨總店,100台灣台北市中正區延平南路61號2樓,4.2,5959,121.5104239,25.0446526,台北市 中正區
ChIJGwapV3-pQjQR55WyORSLPJk,古北饕Goodbeitao_旗艦店,100台灣台北市中正區杭州南路一段9號,4.5,2045,121.5268454,25.0434939,台北市 中正區
ChIJ7e_rfHmpQjQRoQFSKIVubuc,良友小館,100台灣台北市中正區金山南路一段37號1樓,4.3,2174,121.529056,25.0397488,台北市 中正區
ChIJlww7h4KpQjQRB0h1cf2HWQQ,Labu Cafe 中正區寵物友善餐廳 東門捷運站咖啡廳下午茶 永康街早午餐義大利麵,100台灣台北市中正區信義路二段161巷2弄7號,4.3,1090,121.52839,25.0344135,台北市 中正區
ChIJD1-a0iipQjQRDOCUK4nQB8Y,洋城義大利餐廳-東森廣場北車店,100台灣台北市中正區忠孝西路一段47號B1,4.9,5454,121.5174415,25.0465183,台北市 中正區
ChIJQ_spiJipQjQRTAPBc1oXzO8,聚聚,100台灣台北市中正區重慶南路二段92號,4.2,339,121.515028,25.0300166,台北市 中正區
ChIJzTNu80mpQjQRGlOOtsehuVU,璞滿滿,100台灣台北市中正區徐州路34號,4.5,354,121.5235466,25.0405889,台北市 中正區
ChIJVZwwFIypQjQRysDJ_WVX5ZI,巫雲,100台灣台北市中正區羅斯福路三段244巷9弄7號,4.3,935,121.5301112,25.0174873,台北市 中正區
ChIJJVBTsHGpQjQR2JIYeaUXIa8,台北喜來登大飯店－安東廳 Antoine Room,100台灣台北市中正區忠孝東路一段12號2樓,4.4,619,121.5217559,25.0447288,台北市 中正區
ChIJMSYtWlCpQjQRXyCnFJvgV68,想 國家戲劇院,100台灣台北市中正區中山南路21-1號,4.3,611,121.5178002,25.0351586,台北市 中正區
ChIJyz_KKOapQjQRIqFpJAnEjE4,肉球森林,100台灣台北市中正區新生南路一段160巷22-1號1樓,4.8,2325,121.5304564,25.0345218,台北市 中正區
ChIJC0saZszWDRQRxGqNZNAI5uw,福井麵疙瘩/台北美食 台北小吃 台北必吃 中正紀念堂美食 中正紀念堂小吃 中正區美食 中正區小吃 植物園美食,10075台灣台北市中正區寧波西街87-3號,4.4,1997,121.5156986,25.0299752,台北市 中正區
ChIJQQ9SNACpQjQRCD39gXmefi4,茶吧子,100台灣台北市中正區南昌路一段59巷43號,5,78,121.5184343,25.0317248,台北市 中正區
ChIJ302KoFKpQjQR25cOAprWmeg,Rodeo,100台灣台北市中正區杭州南路一段12號,5,133,121.52565,25.0401193,台北市 中正區
ChIJY3SpVBqpQjQR2n727CJgCuk,北棲 邸家,100台灣台北市中正區忠孝東路二段40號1樓,4.6,1223,121.528035,25.0433993,台北市 中正區
ChIJwaXx6OirQjQRoz1mWLhJ6Tw,蔡萬興,100台灣台北市中正區和平西路一段118號,4,1381,121.5170379,25.0268383,台北市 中正區
ChIJg2E8b3ypQjQRkr4fraFP42w,TakeOut Burger&Cafe 忠孝新生店（last order 21:40),100台灣台北市中正區新生南路一段56巷6號,4.7,4451,121.5321837,25.0410852,台北市 中正區
ChIJgbsfD3GpQjQR7z5ZO22KdVQ,雙月食品社 青島店,100台灣台北市中正區青島東路6之2號,4.8,21880,121.5220376,25.0437017,台北市 中正區
ChIJLZxabbKpQjQR6cN-5ukbq78,忠青商行,100台灣台北市中正區青島東路6-1號,4,3596,121.521951,25.0437553,台北市 中正區
ChIJ4RMwsoqpQjQRnWpQtenAjhw,best義pasta食堂,100台灣台北市中正區南陽街3號2樓,4.3,1041,121.5161604,25.0453402,台北市 中正區
ChIJneUTn3KpQjQR8_eBLgiNFMU,Second Floor 貳樓微風台北車站店,100台灣台北市中正區北平西路3號2樓,4.3,3925,121.517044,25.047749,台北市 中正區
ChIJXwOtVnCpQjQRTVueuwzw_2M,御景日本料理|壽司名店|善導寺美食|華山必吃|台北日本料理|無菜單料理|居酒屋|希望廣場|藍線美食|西門町美食|慶生餐廳|北車美食|居酒屋|海鮮|,100台灣台北市中正區林森南路2之4號,4.5,676,121.5229829,25.044331,台北市 中正區
ChIJe-Zpv36pQjQRcIveo24nBg8,Second Floor 貳樓仁愛店,100台灣台北市中正區仁愛路二段108號,4.4,8010,121.5324211,25.0379173,台北市 中正區
ChIJ32bdZwupQjQRHN-JtAkBl4o,泰獅 泰式料理,100台灣台北市中正區武昌街一段16巷12號,4.4,1840,121.5125682,25.0433597,台北市 中正區
ChIJcTzuDJqpQjQRNXZGU1vYgnA,晉江茶堂,100台灣台北市中正區晉江街1號,4.3,1758,121.5211443,25.0263663,台北市 中正區
ChIJXw3oGNWpQjQR4CS7NTPdKss,英吉利私房料理(預約制)/中正區海鮮/中正區合菜/中正區美食/中正區推薦餐廳/台北無菜單料理/中正區日式料理,100台灣台北市中正區銅山街11巷8號往濟南路二段8巷進入,4.6,51,121.5268526,25.0405708,台北市 中正區
ChIJsfYkyp6pQjQRc15Kj0EOY7M,天然臺湘菜館,100台灣台北市中正區羅斯福路一段61號,4,1412,121.519363,25.0316528,台北市 中正區
ChIJresVEQupQjQR4COwktCqS94,大三元酒樓,100台灣台北市中正區衡陽路46號,4.1,4718,121.5122472,25.0422228,台北市 中正區
ChIJmSRUDnepQjQR8VqYMEznPGE,睦軒獨享鍋.定食.私房桌菜,100台灣台北市中正區紹興南街15之1號,4.4,543,121.5236501,25.0389572,台北市 中正區
ChIJRy7kxmipQjQRACw5aOpSyLI,山海樓 手工臺菜餐廳,100台灣台北市中正區仁愛路二段94號,4.1,2216,121.5314068,25.0379808,台北市 中正區
ChIJL7x26KapQjQR_7clImIPx4U,台北花園大酒店-PRIME ONE牛排館,100台灣台北市中正區中華路二段1號,4.4,942,121.5069595,25.0363328,台北市 中正區
ChIJoRPjyYqpQjQRLileViO9FZw,順園小館,100台灣台北市中正區汀州路三段281號,4,2494,121.535557,25.012306,台北市 中正區
ChIJgZ9_SHepQjQRUVSTSQoCVYU,市長官邸餐廳,100台灣台北市中正區徐州路46號,4.1,1242,121.5244711,25.0403439,台北市 中正區
ChIJX8MT_3CpQjQRDIu4caKGCnk,北平上園樓(山西餐廳),100台灣台北市中正區林森南路4號,3.9,1542,121.5229998,25.0441116,台北市 中正區
ChIJeZnryQ-pQjQRNnLc5C4JK8s,瀧厚炙燒熟成牛排 台北.北車店,100230台灣台北市中正區北平西路3號2樓,4.6,6193,121.5169983,25.0477467,台北市 中正區
ChIJkWqNHZ6pQjQRfVMeVYXbaOg,樂格輕食,100台灣台北市中正區中山南路21-1號國家音樂廳,4.3,879,121.5188584,25.0369042,台北市 中正區
ChIJAw7RiXqpQjQRG_fIayNUWBQ,北海漁村 台北杭州店,100台灣台北市中正區杭州南路一段8號,4.2,2407,121.5264991,25.0432649,台北市 中正區
ChIJazuHbz6pQjQRGGRLxz2VfIQ,稻舍食館 迪化店,103台灣台北市大同區迪化街一段329號,4.3,1609,121.5093333,25.0624956,台北市 大同區
ChIJRY4bdhSpQjQRx0pki-OEzVE,漁匠甘霖,103台灣台北市大同區迪化街一段21號,4.5,1581,121.510295,25.055027,台北市 大同區
ChIJ4dluKTipQjQR3oOU_9XUGOQ,老麵店,103台灣台北市大同區迪化街二段215-8號,4.3,3997,121.511647,25.0703655,台北市 大同區
ChIJDcbHlEipQjQR15zhkJX0LO4,漁陶屋 日式料理,103台灣台北市大同區承德路三段206之1號,4.5,4207,121.5181766,25.0703399,台北市 大同區
ChIJcfdsSSmpQjQRD5DMqzq8vms,貍小籠點心專門店 LI XIAO LONG,103台灣台北市大同區延平北路二段60巷21號,4.9,4340,121.5109739,25.0554454,台北市 大同區
ChIJqxSUlAypQjQRx1e_MFwNIdg,擂銗餐廳,103台灣台北市大同區長安西路57號,4.9,606,121.5174491,25.0509053,台北市 大同區
ChIJ2TLUxmOpQjQRlsPjR7pI8DY,微醺花園餐酒館,103台灣台北市大同區延平北路二段16號2樓,4.9,2459,121.511617,25.054309,台北市 大同區
ChIJz2Nt86ypQjQR2Q53B_FEtOA,御珍軒,103台灣台北市大同區重慶北路一段62號2樓,4.5,2755,121.5138513,25.0519877,台北市 大同區
ChIJS2K2iwipQjQROOypuP6vR-c,羅本家咖哩大同店（恕不接受訂位）,10351台灣台北市大同區長安西路138巷3弄2號,4.5,1735,121.5176878,25.0502176,台北市 大同區
ChIJW1dApGqpQjQRHk52Eg3uSQw,太春小館海鮮餐廳,103台灣台北市大同區寧夏路81號,4.3,1519,121.515126,25.0587395,台北市 大同區
ChIJK-3CxhWpQjQRCdqRFa1pamo,牧山丘,103台灣台北市大同區迪化街一段173號,4.3,2565,121.5096237,25.058723,台北市 大同區
ChIJK9fPLm2pQjQRidE8hbLFxCE,大稻埕魯肉飯,103台灣台北市大同區長安西路220巷17號,4.1,5143,121.5146457,25.0509665,台北市 大同區
ChIJfxVIZT6pQjQROdTbLD7I2zk,豐舍Brasserie Bonne Recolte.,103台灣台北市大同區迪化街一段350號,4.4,542,121.5091897,25.0624403,台北市 大同區
ChIJ_6v6xhWpQjQRq8kQTzsl8Ks,鯉魚 The Carp,10347台灣台北市大同區迪化街一段169號,4.3,1179,121.5096345,25.0586443,台北市 大同區
ChIJmTvw8BWpQjQRnJz6yNEbGVs,同安樂,103台灣台北市大同區迪化街一段235號1 樓,4.3,1305,121.509486,25.0601309,台北市 大同區
ChIJ6y0nb2upQjQRLgOjrLK3g64,四喜堂創意食饌,103台灣台北市大同區太原路152巷15號,4.8,611,121.5159535,25.0544829,台北市 大同區
ChIJE63C8fypQjQRocBKJlXHlC8,九月茶餐廳,103台灣台北市大同區承德路二段213號,4.5,2033,121.5184459,25.0598011,台北市 大同區
ChIJp6WvuNWpQjQRfupqxOY5xMk,Moni 餐廳,103台灣台北市大同區西寧北路63號,4.7,1275,121.5089613,25.0546507,台北市 大同區
ChIJtwAEZxSpQjQRBCD2BRSoJvA,幹嘛日式餐酒館,103台灣台北市大同區民樂街18號,4.5,540,121.5107946,25.056068,台北市 大同區
ChIJw5vm__WpQjQR_ERdcXnsvCU,渾水摸魚料亭,103台灣台北市大同區太原路79巷38號1F,4.7,762,121.5168113,25.0515541,台北市 大同區
ChIJ93f2Fz6pQjQRm_xbWngyakM,賣麵炎仔,103台灣台北市大同區安西街106號,4.2,5471,121.5097982,25.0610999,台北市 大同區
ChIJB8xuAmypQjQRazcg8mXEgHw,WOWffizi Cafe&Bistro 烏菲茲餐酒館 | 義大利麵 | 燉飯 | 中山站美食 | 丁骨牛排 | 義大利甜點 | 精釀啤酒 | 葡萄酒 | 威士忌,103台灣台北市大同區南京西路18巷4弄6-1號1樓,4.5,4091,121.519806,25.052325,台北市 大同區
ChIJIWBDRhGpQjQRvziv5q6gr20,大稻埕碼頭貨櫃市集,"103台灣台北市大同區民生西路底五號水門, 大稻埕碼頭貨櫃市集",4.5,5138,121.5074276,25.0561283,台北市 大同區
ChIJdYjHunWpQjQR7-iV4cEMf5E,老童小吃部,106台灣台北市大安區安居街80號1樓,4.6,552,121.5532037,25.0195528,台北市 大同區
ChIJe7JZZxWpQjQRDr7ZxWTbsvc,呷二嘴,103台灣台北市大同區甘州街34號,4.3,2962,121.5126908,25.0594087,台北市 大同區
ChIJexF7nfepQjQREgcit3HfbVI,POTTI & POTTI CAFE,103台灣台北市大同區民族西路225巷5號,4.5,945,121.5123423,25.0692205,台北市 大同區
ChIJu0fFqGypQjQRWtwPXFHdifE,無口小廚 Mukuchi Kitchen & Bar,10343台灣台北市大同區環河北路一段431號一樓,4.6,1590,121.508782,25.0622565,台北市 大同區
ChIJC5v3WaapQjQR7-Pb6CAyHgw,大稻埕貴賓 寵物友善餐廳 standard poodle coffee,103台灣台北市大同區迪化街一段302號,4.3,374,121.5091797,25.0615348,台北市 大同區
ChIJyT-4kVepQjQRqMCaIcstHgY,度小月台北迪化店,10344台灣台北市大同區迪化街一段112號,3.9,2430,121.5097801,25.0565893,台北市 大同區
ChIJ3-qdbQ2pQjQRT18amXFhVNM,大叔食事unclefoodday,103台灣台北市大同區哈密街89號,4.5,1523,121.5146436,25.0730686,台北市 大同區
ChIJm_pGd5arQjQRsD_vJMWg8Cc,大烹小饌｜精緻台客中式料理,103台灣台北市大同區民生西路146-1號,4.5,1671,121.5185969,25.05734,台北市 大同區
ChIJW1dApGqpQjQRkoYUEBUrujk,太春小館,103台灣台北市大同區民生西路198-4號,4.1,1159,121.5167202,25.0570202,台北市 大同區
ChIJizl1cj6pQjQR9pTlph-UU7s,D.G. Café,103台灣台北市大同區迪化街一段334號,4.1,789,121.5091733,25.0622092,台北市 大同區
ChIJ33b5tz2pQjQRsWkDeiQMdZU,BeMyGuest Taipei Cooking Classes 好客台北,103台灣台北市大同區迪化街一段356號十連棟歷史建築後方大樓2樓,5,282,121.509064,25.0625756,台北市 大同區
ChIJIU2EWtypQjQRjZIwpUbyzJs,Les tables,103台灣台北市大同區貴德街75-2號1樓,4.4,873,121.5084519,25.0562594,台北市 大同區
ChIJvZ52YQmpQjQR4l-ag3QE3ms,無所洋食 SyoSyoHouBou,103台灣台北市大同區迪化街一段358之1號,4.5,631,121.5090979,25.0628079,台北市 大同區
ChIJcQ2qfDipQjQR2h4SKwFDv04,丫田廚房,103台灣台北市大同區重慶北路三段217號,4.1,390,121.5139366,25.0703802,台北市 大同區
ChIJ80Xa4T6pQjQRAn6L2nuN620,"灶頂 原汁排骨湯,高麗菜飯",103台灣台北市大同區延平北路三段17巷2號,4,2916,121.5112783,25.0638201,台北市 大同區
ChIJL_FEWBGpQjQRcVMANMLu150,在她家,103台灣台北市大同區貴德街47－2號,4.4,248,121.5083329,25.0546858,台北市 大同區
ChIJo2EwZT6pQjQRNElib4z3B4s,東方饌黔天下貴州主題餐廳,103台灣台北市大同區迪化街一段358之2號,4,420,121.5091003,25.0628448,台北市 大同區
ChIJAdNKvnOpQjQRbhQLPflI9O8,螺螄福Rose food正宗柳州螺螄粉,103台灣台北市大同區赤峰街14-1號,4.9,18502,121.5195571,25.0550226,台北市 大同區
ChIJKeEEgSGpQjQRVNOc_WvKiFE,月見 Meet the Moon日式料理,103台灣台北市大同區長安西路74號,4.4,671,121.5194055,25.0502687,台北市 大同區
ChIJwUAi9vapQjQRkHT_qA280kA,元味料理,103台灣台北市大同區華陰街227巷2號,4.4,331,121.5141177,25.0507834,台北市 大同區
ChIJAyvfIJqpQjQR5I19JwKbdbY,RADICI（elementi 根元咖啡 經營）,103台灣台北市大同區迪化街一段197號2進,4.5,295,121.509566,25.059322,台北市 大同區
ChIJ89MCdu6pQjQR17vPpkI-s1g,築地良味食事處,103台灣台北市大同區塔城街33號,4.6,734,121.5105549,25.0522549,台北市 大同區
ChIJnVQpHWypQjQRn0j-pRlAbqw,First One Bistro 佛斯特旺餐酒館｜義大利麵｜燉飯｜義式甜點｜南西商圈｜中山站美食｜台北美食推薦,103台灣台北市大同區南京西路18巷6弄5號,4.5,3285,121.5197251,25.052083,台北市 大同區
ChIJq-ktZRSpQjQRjKL9eVP93OU,永樂米苔目/永樂市場美食/大稻埕美食/台北美食/大稻埕必吃/大稻埕小吃/附近美食,103台灣台北市大同區民樂街111號,4.1,2682,121.5106782,25.0573899,台北市 大同區
ChIJQYuJPG2pQjQR4KzgNhGTS9c,三多屋爸爸嘴,103台灣台北市大同區太原路19號1樓,4.2,6203,121.5152487,25.0503345,台北市 大同區
ChIJR8001j6pQjQRVcm-gqkBQDo,大橋頭老牌筒仔米糕,103台灣台北市大同區延平北路三段41號,4.3,4983,121.5111859,25.0648953,台北市 大同區
ChIJTwEC1D6pQjQRL5oArrBlO6M,施家鮮肉湯圓,103台灣台北市大同區延平北路三段58號1 樓,4.3,3448,121.5109816,25.065153,台北市 大同區
ChIJ4UbKQEmpQjQRYpkQuZ8Jpbo,頂園食坊餐廳,103台灣台北市大同區承德路三段250號,4.2,495,121.5186449,25.0730793,台北市 大同區
ChIJw5Tkt3ipQjQRFttEmiLjueI,金樺城鵝肉担-延三店,103台灣台北市大同區延平北路三段24號,4.7,792,121.511047,25.064137,台北市 大同區
ChIJOeebQ8SpQjQR_H9uFjAqnzQ,Nowhere Taipei 墨西哥餐酒館 | PUB,10349台灣台北市大同區承德路一段16號,4.8,1930,121.5166241,25.0503058,台北市 大同區
ChIJRae_W_GpQjQRrsVwLmzJ0h4,Lisa泰式美食,103台灣台北市大同區承德路二段215號,4.1,1603,121.518434,25.0598675,台北市 大同區
ChIJMVJCG7ipQjQR3Lrvb1FPy3w,赤埕 迪化街概念店,103台灣台北市大同區永昌街1號,4.3,70,121.5108172,25.0556128,台北市 大同區
ChIJRWsih2mpQjQRYtxKqZr2Msw,Modern Mode & Modern Mode Café,103台灣台北市大同區迪化街一段278號,4.3,1054,121.509241,25.0609712,台北市 大同區
ChIJNcorNUapQjQRDhAnKCjn_a8,謝謝一鍋 火鍋專賣店-大同聚餐餐廳|必吃美食|道地美食|平價美食|家族聚餐推薦|在地推薦餐廳,103台灣台北市大同區民族西路223號,4.9,2373,121.5131081,25.0687414,台北市 大同區
ChIJoaiywAWpQjQRZl6XrDU3z3I,波麗路餐廳-創始本店,103台灣台北市大同區民生西路314號,4.1,495,121.5119319,25.0568956,台北市 大同區
ChIJlbNJZT6pQjQRX4zDOscgcd0,2021老梅的家,103台灣台北市大同區迪化街一段356號原2021饕客棧,4.8,312,121.5090825,25.0625746,台北市 大同區
ChIJwZ6Ps0ipQjQRD8dhXPgHx3E,駱師父醬味川客菜,103台灣台北市大同區民族西路31巷36號,4.1,1240,121.519644,25.0696829,台北市 大同區
ChIJTSYZklepQjQRuZ7bv4Dr-nI,金孫韓廚 義大利麵 中山,10491台灣台北市中山區中山北路二段26巷15-1號,4.7,2687,121.5214527,25.0540483,台北市 中山區
ChIJs-Okg_mrQjQRTY4tXEZs8xI,柒號洋樓,104台灣台北市中山區建國北路二段7號2樓,4.9,1931,121.5372678,25.0527186,台北市 中山區
ChIJh4IrcmmpQjQRHrOfd9RDwyI,WOW Bistro旺.慢食餐酒館 -中山店,10491台灣台北市中山區中山北路二段42巷34號,4.6,5385,121.5209624,25.0546394,台北市 中山區
ChIJHdyrxrWpQjQRVUx2nUhAuPs,Second Floor 貳樓中山南西店,104台灣台北市中山區中山北路二段16巷22號,4.4,3106,121.5210538,25.0529912,台北市 中山區
ChIJAwOaA0WpQjQRWk_9p5ulgwU,麗芳老樓,10491台灣台北市中山區雙城街18巷15號,4.7,877,121.5232195,25.0654963,台北市 中山區
ChIJb9CZ9m6pQjQRZ7PgTEtMDOo,嘉廚 Collective Excellent restaurant,104台灣台北市中山區中山北路二段96-1號雙連郵局隔壁,4.6,469,121.5225471,25.05945,台北市 中山區
ChIJ757aX8-pQjQRLOrjWHzw6RM,柚子花花客家菜(台北店),104台灣台北市中山區中山北路二段48巷7號B1,4.5,4223,121.5210944,25.0557911,台北市 中山區
ChIJMxELxGipQjQROGvBULbtZuA,義麵坊 中山店,10491台灣台北市中山區中山北路二段11巷7之1號,4.4,4370,121.5237005,25.0527917,台北市 中山區
ChIJCbZIx5CrQjQR2hqsq49qLKo,MUSA Bistro《芭花家餐酒館》,104台灣台北市中山區民生東路二段127巷10號,4.7,785,121.5321484,25.0587406,台北市 中山區
ChIJs48d5mipQjQRgxpTg-qw1y4,日式洋麵館 麵日和 Men Biyori,10450台灣台北市中山區南京東路一段13巷6弄8號,4.5,2964,121.5234209,25.0535476,台北市 中山區
ChIJyQU1ZgWsQjQR5kN2WtEzKtU,Restaurant Page 頁小館,10463台灣台北市中山區北安路595巷20弄4號1樓,4.6,2087,121.547774,25.08184,台北市 中山區
ChIJ6di4z26pQjQRDuQAecDvA_U,螺絲瑪莉義麵坊,10491台灣台北市中山區南京西路12巷13弄9號,4.3,8648,121.5219695,25.0517642,台北市 中山區
ChIJlazMLmmpQjQReLshHPG2fyQ,六堆伙房 中山南西店,"B1, No. 2號中山北路二段中山區台北市台灣 10491",4.2,4548,121.5221961,25.0524457,台北市 中山區
ChIJr9JFPW-pQjQRvynzM2OVS6I,"青葉台灣料理（創始店）, 1964年創立",104台灣台北市中山區中山北路一段105巷10號,4.3,1840,121.5234992,25.0506189,台北市 中山區
ChIJVXmhsvKpQjQRehHLXC1si_0,米匠Mi Jian 中山店,104台灣台北市中山區中山北路一段140巷3號,4.2,909,121.521822,25.0515623,台北市 中山區
ChIJL3HOlOypQjQRB9_Xn8T5lfs,品司和食,10448台灣台北市中山區天祥路48巷1號1樓,4.9,3737,121.5208228,25.0618593,台北市 中山區
ChIJ5-yjj_2pQjQRqlPbvXCDs_o,永心鳳茶｜新光南西店 YONSHIN FENGCHA,104台灣台北市中山區南京西路15號三樓,4.3,3836,121.5206139,25.0528767,台北市 中山區
ChIJ_SJpCa-pQjQRNAt8o_e3wNk,Gras,10491台灣台北市中山區民權西路56巷2號,4.5,521,121.520372,25.062468,台北市 中山區
ChIJc3mO3Y-pQjQRu0eMzMjdyj0,一屋xCOUPLE ²,104台灣台北市中山區中山北路一段83巷18號,5,2918,121.5235025,25.0500135,台北市 中山區
ChIJO16aXm-pQjQR5OsC7hn8zKo,梅子台灣料理餐廳 林森老店,10443台灣台北市中山區林森北路107巷1號,4.4,1632,121.5252431,25.0503769,台北市 中山區
ChIJ929ecNCrQjQRDBlncDmASXA,十得私廚-台菜料理|酒家菜推薦|宅配|冷凍包|台北中山區|民權西路站,104台灣台北市中山區中山北路二段185號2樓,4.4,1854,121.5226156,25.0638666,台北市 中山區
ChIJ-wUCBWypQjQRIaIsMTPpavY,荷蘭小鬆餅南西中山店,103台灣台北市大同區南京西路64巷9弄19號,4.2,2408,121.5193328,25.0523783,台北市 中山區
ChIJY06RcWmpQjQR-pFGFmD6NR4,大師兄銷魂麵舖-中山店,10491台灣台北市中山區中山北路二段42巷36號,4.2,5779,121.520877,25.054611,台北市 中山區
ChIJpSovG2ypQjQRpjSy5jvQbTU,Leone Restaurant & Bar,104台灣台北市中山區林森北路353巷20號,4.6,1412,121.5263752,25.0568698,台北市 中山區
ChIJVz_H32ipQjQRDDbDTPoI01Q,王品牛排 台北中山北店,104台灣台北市中山區中山北路二段33號2F,4.8,10977,121.5228424,25.0533809,台北市 中山區
ChIJhVCbiuKrQjQRsOhnYoL8Ipg,la mole taipei,10491台灣台北市中山區建國北路二段151巷12號,4.6,1133,121.5382901,25.0617049,台北市 中山區
ChIJV81H1GmpQjQRrtFMcAyTTBs,BeApe Restaurant,10491台灣台北市中山區中山北路二段72巷1號2樓,4.3,2778,121.5224699,25.057223,台北市 中山區
ChIJvw4JL-GpQjQR06sfBHzlFSw,潮丼日式定食/平價美食餐廳,104台灣台北市中山區民生西路45巷7弄21號,4.4,1225,121.5215569,25.058802,台北市 中山區
ChIJKX9Y72ipQjQR5SYZhko7c0s,POPINA,10491台灣台北市中山區南京東路一段13巷6弄1號,4.2,839,121.5234403,25.0536311,台北市 中山區
ChIJkcNixm6pQjQRIh8iygr2K5E,福大蒸餃館,10491台灣台北市中山區中山北路一段140巷11號,4,4403,121.5216364,25.051518,台北市 中山區
ChIJW-a6S0WpQjQR-1hgfvsXaZo,TUTTO BELLO,104台灣台北市中山區雙城街25巷15號1樓,4.3,1162,121.5253517,25.0662682,台北市 中山區
ChIJg3D5FFSpQjQRjxW3v1V5q4c,瑪喜 Marée Taipei(預約制),10491台灣台北市中山區中山北路三段26-1號民權西路捷運站 9 or 10號出口400公尺,4.7,496,121.5216589,25.0650661,台北市 中山區
ChIJy2cTgv2pQjQR1Fhco2EWmvg,丸滿台灣味手路菜,10491台灣台北市中山區林森北路353巷21號,4.3,1641,121.5263044,25.0570725,台北市 中山區
ChIJbamMQUWpQjQRiFWnBTPPj_Y,欣葉台菜創始店,10491台灣台北市中山區雙城街34之1號,4.2,5969,121.524184,25.066506,台北市 中山區
ChIJP0riSl2pQjQRE2yfU1bcuPY,驢子餐廳 春大直店,104台灣台北市中山區樂群三路303號3樓,4.3,2908,121.5603354,25.0827622,台北市 中山區
ChIJHeQU2UCpQjQRhNcDeQ1fUMI,Ad Astra,10450台灣台北市中山區中山北路二段45巷23號,4.8,275,121.5240999,25.0545083,台北市 中山區
ChIJi9ZbBmCpQjQRVeTAAncsqD0,香頌私宅洋樓｜台北中山區高級餐廳推薦｜必吃私廚美食｜台北約會生日餐廳｜台北包場尾牙春酒餐廳推薦,10491台灣台北市中山區建國北路二段52號,4.2,1282,121.5363847,25.0539118,台北市 中山區
ChIJZf_OS2ipQjQRE1H_bmSb708,Buttermilk 摩登美式餐廳,10491台灣台北市中山區中山北路二段57之1號,4.1,2103,121.5230276,25.0557916,台北市 中山區
ChIJ5zRYGEOpQjQRVbzt4SRfUY4,人和園餐廳,104台灣台北市中山區中山北路二段112號2樓,4.4,2332,121.5227606,25.0607259,台北市 中山區
ChIJGwi6QkOpQjQReytL55AENQg,明福台菜,10491台灣台北市中山區中山北路二段137巷18-1號,4.4,1548,121.524265,25.0616562,台北市 中山區
ChIJAaWadG-pQjQRMj0E5mvtC6A,亞里士餐廳-中山精緻排餐|必吃牛排|人氣排餐|特色排餐|人氣美食|推薦牛排,10491台灣台北市中山區長安東路一段27號,4.1,1614,121.5242753,25.0493903,台北市 中山區
ChIJG-oEi9irQjQRe-BJfgoUMtw,田園海鮮餐廳,104台灣台北市中山區八德路二段174巷5號,4.3,3558,121.5382496,25.0459442,台北市 中山區
ChIJs44Qgd6pQjQRapaskqcRXIU,COAST,10491台灣台北市中山區中山北路二段39巷3號B2,4.3,551,121.524691,25.0540706,台北市 中山區
ChIJzSDg_GupQjQRstZGCslnXHE,魚兵衛太春和食處,103台灣台北市大同區赤峰街3巷9號1樓,4.2,1722,121.5196083,25.0533917,台北市 中山區
ChIJK_cYw9qpQjQRAxL5kZjMk_8,滿滿厝台式創意料理餐廳,104台灣台北市中山區建國北路二段6巷5號,4.5,723,121.5360783,25.0526683,台北市 中山區
ChIJ-_VdlmGpQjQRzQLgorNNDLA,老爺小花園,10491台灣台北市中山區伊通街31號,4.2,2049,121.5352456,25.0503413,台北市 中山區
ChIJWdDBANqrQjQRAmKqoQ6AQCU,Cloud 9 Cafe 中山,103台灣台北市大同區承德路二段1巷19號,4.5,1643,121.5187931,25.0535939,台北市 中山區
ChIJez2Q5WepQjQRfOkfT_H5tGM,水云濮花椒麻辣麵中山店-茶葉禮盒/林森北路/素食/中山區美食推薦/古樹普洱茶/黑茶/捷運雙連站中山站美食 中山店,10491台灣台北市中山區新生北路二段60巷36號,4.7,2327,121.5264296,25.0556665,台北市 中山區
ChIJN6NAV2mpQjQRsARspmzkV7g,GALERIE Bistro 家樂利小酒館,103台灣台北市大同區南京西路25巷2號,4.2,2155,121.52013,25.053362,台北市 中山區
ChIJ5ymH9mipQjQRvCXzKzCR3OI,晶華軒,104台灣台北市中山區中山北路二段39巷3號3樓,4.4,1585,121.524194,25.0541478,台北市 中山區
ChIJAR3M7iKpQjQR7wPkb3ZHsCU,椰兄泰式料理餐廳 中山店,103台灣台北市大同區南京西路18巷6弄8-2號,4.2,4445,121.5196452,25.0520205,台北市 中山區
ChIJt3yXuFupQjQR4fGsPcwIluI,天香樓 Tien Hsiang Lo,10491台灣台北市中山區民權東路二段41號B1,4.5,1621,121.5299911,25.0628834,台北市 中山區
ChIJaUrfNC-rQjQRVxQmSZzFKJ8,輝葉台菜,104台灣台北市中山區長安東路二段169-5號,4.5,443,121.5409884,25.0484129,台北市 中山區
ChIJlwsr1mepQjQRsZ8pOJiUmMo,紅磡 新飲茶 （林森店）中山區 / 外帶 / 外送 / 下午茶 / 宵夜 / 人氣餐廳 / 推薦餐廳 / 生日聚餐 / 家庭聚餐 / 朋友聚餐 / 約會餐廳,10491台灣台北市中山區林森北路263號2F-1,4.5,8105,121.5255861,25.0545101,台北市 中山區
ChIJy-dJ5ampQjQRnJLD-y7X4QQ,犟餐酒館,10442台灣台北市中山區新生北路一段66號1樓,4.8,403,121.5303393,25.0471825,台北市 中山區
ChIJHS-iTWmpQjQR07JYlXrMQqY,吉比鮮釀餐廳 - 台北南西店 GBA Brewery Restaurant - Taipei Nanxi Store,10491台灣台北市中山區南京西路15號8樓,4.3,1640,121.5206835,25.0527465,台北市 中山區
ChIJnbVx9eOpQjQRcBybkvgYQvc,七転八起-中山必吃串燒|人氣串燒|串燒專門店|串燒烤肉|熱門居酒屋|居酒屋推薦|喝酒聚餐推薦|隱藏居酒屋,104台灣台北市中山區中山北路一段140巷25號2樓,4.8,1283,121.5212372,25.0515148,台北市 中山區
ChIJlVNfWeqrQjQRqO4OMZ0keZ4,羽樂歐陸創意料理,105台灣台北市松山區南京東路四段162號,4.7,3935,121.5564875,25.0513556,台北市 松山區
ChIJ37mFwu6rQjQRMDAw9IxDH44,Snail 蝸牛義大利餐廳 民生店,105台灣台北市松山區民生東路四段56巷3弄10號,4.6,4424,121.552205,25.0570927,台北市 松山區
ChIJqxr9UO6rQjQRw9xnehrCHvg,千層吧,105台灣台北市松山區民生東路五段138巷17號,4.6,633,121.5618039,25.0569869,台北市 松山區
ChIJjSj3KvarQjQRhQiXuwVdvwc,青樓中式餐酒館,105047台灣台北市松山區八德路四段512-1號,4.7,2265,121.5708898,25.0496766,台北市 松山區
ChIJZRnK2ferQjQR0tXt_reAwQc,不葷主義茶餐廳 台北店,105台灣台北市松山區南京東路三段275號2樓,4.8,7810,121.5455158,25.05201,台北市 松山區
ChIJmfF8XcOrQjQRA9x4huvWxRw,La Locanda,105台灣台北市松山區八德路三段12巷52弄18號1樓,4.3,734,121.5498643,25.0462673,台北市 松山區
ChIJs66bM0qrQjQRuJSauVGzDWM,招治飯店,105台灣台北市松山區南京東路四段133巷4弄6號1樓,4.4,852,121.5548982,25.0522897,台北市 松山區
ChIJYRoU1marQjQROmsP8urhm8Y,關東本家-松山深夜美食|街邊美食|巷弄美食|人氣關東煮|人氣消夜|在地推薦宵夜,105台灣台北市松山區吉祥路41號,4.8,1576,121.5626223,25.0500195,台北市 松山區
ChIJ85whEZurQjQR5oeX9Aq3e2Q,夏綠沁私房義大利麵燉飯 甜點下午茶 聚餐小酌 外帶外送 原夏綠蒂小私廚 寵物友善 中山國中松山機場附近美食 Summer Green Pasta Spaghetti Risotto Bistro Restaurans 台北の料理 타이베이 요리,105台灣台北市松山區敦化北路244巷37號,4.8,822,121.547719,25.0610181,台北市 松山區
ChIJ-ctn92CpQjQR75XloqYQAGo,彌敦道茶餐廳,105台灣台北市松山區民生東路三段130巷5弄8號,4.6,2929,121.5465717,25.0569212,台北市 松山區
ChIJozVmlq2rQjQRdEDj-K0Sd7I,鄞家食堂,105台灣台北市松山區八德路三段12巷15-1號,4.7,1759,121.5507974,25.0467547,台北市 松山區
ChIJY3elPuirQjQREatp4yzQoHY,薺元小館,105台灣台北市松山區南京東路四段19號,4.4,2519,121.5502292,25.0519398,台北市 松山區
ChIJYzKdXeqrQjQRXga3f1NvrHI,湘民小館,105台灣台北市松山區八德路三段155巷24號,4.1,1262,121.5551372,25.0495353,台北市 松山區
ChIJjQozdearQjQRIBZ-D3C1c3A,紅舍私房菜(星期日固定店休)/restaurants/台北美食/台北推薦餐廳/台北家庭聚餐/台北合菜/台北松山區美食,105台灣台北市松山區民生東路三段130巷5弄18號,4.4,686,121.5470508,25.0569108,台北市 松山區
ChIJcwBznOerQjQRw3kEBKhioPo,Cin Cin Osteria請請義大利餐廳 (慶城店),105台灣台北市松山區慶城街16巷16號1F,4.3,5011,121.5459729,25.0528017,台北市 松山區
ChIJZWwjyeerQjQRAjZeXRgvO0c,北平萬珍樓美食餐廳,105台灣台北市松山區敦化北路120巷11號,4.1,1464,121.5472891,25.0538475,台北市 松山區
ChIJAxKaR6OuQjQRxoAabVYNSvU,時時,105台灣台北市松山區南京東路五段59巷19號一樓,4.3,916,121.5592367,25.0522758,台北市 松山區
ChIJw8JbDsCrQjQRzRofIDKpgpE,小龍飲食,105050台灣台北市松山區光復南路13巷31號一樓,4.1,3873,121.559205,25.0478557,台北市 松山區
ChIJW795EeurQjQRAhp-PqZhheA,品冠客家小館,105台灣台北市松山區南京東路五段23巷9弄4號,4.4,1302,121.5579,25.0527,台北市 松山區
ChIJD2QAcsCrQjQRsoPgiqP9iBU,四海一家,105台灣台北市松山區八德路四段72巷10弄16號1樓,4.3,4046,121.5593061,25.0472369,台北市 松山區
ChIJn6ke5ZGrQjQRnyZE_xNE4ro,小北平麵食館,105台灣台北市松山區延壽街97號,4.3,889,121.5663889,25.0572222,台北市 松山區
ChIJ1zz_jcWrQjQRKDEcTwsZKT4,米與多蜜 台北東興店｜平價日式漢堡排/家庭料理/捷運南京三民站美食,105台灣台北市松山區東興路23號,4.8,4483,121.5654806,25.0495889,台北市 松山區
ChIJhVyTLZWrQjQRaNfIK-fOkJE,萬芳冰室 南京店｜茶餐廳｜南京三民美食推薦,105台灣台北市松山區南京東路五段66巷16號,4.1,2612,121.5606895,25.0502581,台北市 松山區
ChIJJaeSPcOrQjQR73XFXXh_zLs,醉楓園小館,105台灣台北市松山區八德路三段8巷5號,4.3,1621,121.54975,25.0474556,台北市 松山區
ChIJn8-tLZWrQjQR90RWDVyx_W8,絕好調 和食海鮮酒場,105台灣台北市松山區吉祥路61號,4.6,809,121.5626437,25.0506789,台北市 松山區
ChIJvdWMGY2rQjQRjF3SNuha2Tw,松果院子(午晚餐最後點餐時間：15:50/19:50),105台灣台北市松山區富錦街449號,4.2,2214,121.561608,25.0609334,台北市 松山區
ChIJT5KYxWCrQjQRQNYOWTUIuHw,花滔廚房,105台灣台北市松山區光復北路120巷31號,4.6,730,121.5566659,25.0510519,台北市 松山區
ChIJMzU45eirQjQRLJZBNaaDen4,京鼎小館,105台灣台北市松山區敦化北路155巷13號,4.2,1838,121.5506465,25.0541758,台北市 松山區
ChIJB8HhqYurQjQRSOLmsl5TQFQ,小院子⋄特色地方熱炒⋄陝西外省⋄麵食⋄飯類⋄/台北美食/台北熱炒/台北推薦餐廳/台北必吃/台北陝西菜/附近美食,105409台灣台北市松山區南京東路五段123巷2弄7號,4.6,246,121.5611012,25.0521339,台北市 松山區
ChIJf6E9SrmrQjQRbohBtNVdZ_Y,Bon Jour 請慢用 法國小皇后,105台灣台北市松山區南京東路五段23巷6弄25號1樓,4.6,687,121.5589785,25.0522353,台北市 松山區
ChIJJYOmOMOrQjQRKdqazCuONy0,磚窯古早味懷舊餐廳,105台灣台北市松山區敦化南路1段7-1號,4.2,1519,121.5493097,25.0468884,台北市 松山區
ChIJUahmDo6rQjQRf2NTI5JdeZ4,蕭家牛雜湯,105台灣台北市松山區新東街26巷1號,4.3,2396,121.5660611,25.0587265,台北市 松山區
ChIJoeG-BpSrQjQRxAW5R4IQT6g,東引小吃店(推薦深夜美食 牛肉麵 滷味 台北宵夜 捷運南京三民站）,105台灣台北市松山區南京東路五段291巷20弄3-2號,4.2,6699,121.5658826,25.0524655,台北市 松山區
ChIJK5GmlHyrQjQRPNKNdgjHRhU,有間小館,105台灣台北市松山區寶清街26號,4.5,356,121.568077,25.051858,台北市 松山區
ChIJ80A6XeurQjQR-13X46PZRco,小統一牛排,105台灣台北市松山區健康路174號,4.2,1376,121.558516,25.0536795,台北市 松山區
ChIJW99DbMSrQjQRj7VWsgJOZ9k,雙月食品社 八德店,105台灣台北市松山區八德路二段447之1號447之1號,4.9,20364,121.5472885,25.048337,台北市 松山區
ChIJfcSgdOarQjQRsw-y7sLi86U,海真私房菜民生店,105台灣台北市松山區民生東路三段130巷7弄15號,4.1,2151,121.546865,25.0566485,台北市 松山區
ChIJMTDjgL-rQjQRYK9zG2KJ-iw,阿東師 吉祥鮨,105台灣台北市松山區光復北路11巷81號,4.3,406,121.5615837,25.0503379,台北市 松山區
ChIJJ13-mEirQjQRp1bsa2PP7JI,舒曼六號餐館 小巨蛋南京店,105台灣台北市松山區南京東路三段303巷8弄11號,4.2,1867,121.5473244,25.0529345,台北市 松山區
ChIJ0-93j7GrQjQRkaojyyna2ko,Cornerstone Cafe (Modern Australian Brunch),105台灣台北市松山區延壽街358號,4.5,374,121.558803,25.0564391,台北市 松山區
ChIJuXLsJOarQjQRcKsNbhqpbmQ,禾多餐酒館 小巨蛋店 -松山人氣餐酒館|小巨蛋餐酒館推薦|義式餐廳|聚餐餐廳|打卡餐廳|包場餐廳,105台灣台北市松山區光復北路120巷7號1樓,4.9,279,121.5571248,25.0510162,台北市 松山區
ChIJh2u_Wt2rQjQRzFNi7aa3RO4,好食 Mangia Bene,105台灣台北市松山區八德路三段12巷4弄5之1號號1樓,4.2,411,121.5503177,25.0474714,台北市 松山區
ChIJIdKs8umrQjQRAFiANUFwL9Y,祥福餐廳,105台灣台北市松山區南京東路四段50號2樓,4.1,2380,121.5534545,25.0514382,台北市 松山區
ChIJu1Cbju6rQjQRfHWLfwSBGjg,芝生食堂 民生社區店,105台灣台北市松山區民生東路四段80巷1弄1號,4.2,1277,121.5530867,25.0577335,台北市 松山區
ChIJdzQ9rLGrQjQR6J-Nix7QAO8,新東南海鮮餐廳 松山店,105台灣台北市松山區八德路四段656號,4.4,7594,121.5753921,25.0498515,台北市 松山區
ChIJIWnhi92rQjQRUUH3cKDPucI,蘭花廳(台菜海鮮) - 兄弟大飯店,105台灣台北市松山區南京東路三段255號2-3樓,4.1,579,121.5445961,25.0520507,台北市 松山區
ChIJ2b76oOerQjQRG5JMhn7pivo,紅廚 義大利餐廳,105台灣台北市松山區慶城街22號,4,990,121.5456174,25.0535327,台北市 松山區
ChIJy-fzTrqrQjQRC2u_ddb9sZ8,鵝董-松山美食 松山鵝肉 松山聚餐 松山外帶美食 小巨蛋鵝肉 小巨蛋聚餐 小巨蛋美食 松山外送美食,105台灣台北市松山區八德路三段168號,4.7,690,121.5554764,25.0479302,台北市 松山區
ChIJqekue9yrQjQR6OpTrxGHO9U,一茶一瓦 一號糧倉店,105台灣台北市松山區八德路二段346巷3弄2號,4.4,2727,121.545057,25.047459,台北市 松山區
ChIJ_VhAK9GpQjQRgkQFRTEdgDE,馬友友印度快餐店 Dhaba by MIK (Langar before),105台灣台北市松山區光復北路10號,4.9,1117,121.5576508,25.0486453,台北市 松山區
ChIJ26J7csKrQjQRe30eJxfwwc0,J&J Private Kitchen,105台灣台北市松山區健康路8巷1號,4.3,137,121.5528592,25.0523244,台北市 松山區
ChIJVYa5FjKqQjQRZyu9mvTqQlc,青沐（敦北店）,10549台灣台北市松山區敦化北路155巷7號,4.3,2379,121.5502225,25.0541535,台北市 松山區
ChIJs6EThd2rQjQR79IDrRnVX9s,九屯咖哩 Kyutamuro,105台灣台北市松山區民生東路四段56巷1弄2號,4.6,739,121.5516893,25.0574056,台北市 松山區
ChIJrxzTVXqrQjQRTtLypKVQMYQ,新娘子麵店小吃（寶清店）,105台灣台北市松山區寶清街63號,4.2,1651,121.5683702,25.0516239,台北市 松山區
ChIJTxvEpoyrQjQRUM9XOOLWjv4,LA PIADA - Gastronomia 義式薄餅店,105台灣台北市松山區南京東路五段163-11號,4.8,507,121.5626965,25.052023,台北市 松山區
ChIJ-8bD0OirQjQRFrj2DftHMQQ,時時香 RICE BAR 松山車站店,110台灣台北市信義區松山路11號號 2 樓,4.6,966,121.5791407,25.0491629,台北市 松山區
ChIJ12eM2ZWrQjQRDLcoyTxlV6I,集客人間茶館-東興店,105台灣台北市松山區東興路16號,4.6,4917,121.5653335,25.0494778,台北市 松山區
ChIJX7JwpnmrQjQRrc5er4yhvDg,東引快刀手-光復店,105台灣台北市松山區光復南路54號,4.2,2009,121.5576116,25.0458164,台北市 松山區
ChIJW-0Vl5arQjQRnd0jVlLsV1k,金山客家小館 創始店,105台灣台北市松山區南京東路五段250巷2弄5號1樓,4.2,1403,121.5664009,25.0507704,台北市 松山區
ChIJRxBHXuWrQjQRmBPHL8V7lVA,小食泰泰式料理餐廳/高級泰式便當外送外帶/客製便當/Fanthaisy Thai Restaurants/聚餐,105台灣台北市松山區敦化北路238巷27號,4.4,2261,121.5482342,25.0607469,台北市 松山區
ChIJV_RfoperQjQRit9_MVtVUps,不二煮藝,106台灣台北市大安區仁愛路四段112巷9弄5號1樓,4.8,2058,121.5500021,25.0368323,台北市 大安區
ChIJYbRuh9KrQjQR97QVMLEicQs,Oregano奧瑞岡義式餐廳,106台灣台北市大安區四維路96號,4.5,2668,121.547947,25.0327767,台北市 大安區
ChIJi-wf3OCrQjQRqlPSWwyJzgA,106HARBOR美式海鮮餐廳,106台灣台北市大安區安和路一段127巷29弄13號1樓,4.9,3319,121.5536072,25.0356753,台北市 大安區
ChIJwQPcmc-rQjQRtXDQA__PPwg,solo pasta,106台灣台北市大安區安和路一段29-1號,4.5,12663,121.5506541,25.0391961,台北市 大安區
ChIJ-0-weL2rQjQRyzUgFcOcehU,The Stage Canteen,106台灣台北市大安區信義路四段265巷31弄1號,4.9,118,121.5553615,25.0345539,台北市 大安區
ChIJx_wX4virQjQRX2J2swlasUo,Ombré敦南店,106台灣台北市大安區北市敦化南路一段161巷70號,4.5,3391,121.5526184,25.0434134,台北市 大安區
ChIJFap94WarQjQR8xORzmAVd88,雙月食品社 森林公園店,106台灣台北市大安區和平東路二段52號,4.9,22597,121.5383336,25.0253639,台北市 大安區
ChIJeauYAfKrQjQRN9q5ZO1xBTo,饗樂餐廳 Feast &Fun,106台灣台北市大安區四維路154巷1號,4.6,357,121.5477872,25.0310324,台北市 大安區
ChIJ87I138yrQjQR-lABGmCr6jc,湘八老,106台灣台北市大安區安和路二段74巷8號,4.3,1512,121.5514102,25.030362,台北市 大安區
ChIJY3YUcaKrQjQRZ1OTdcQlbEo,二本松涮涮屋 本館,106台灣台北市大安區瑞安街118號,4.9,9126,121.5425364,25.0296552,台北市 大安區
ChIJly19jbyrQjQRBN17akR0XKo,好米亞,106台灣台北市大安區敦化南路一段270巷6號,4.3,3076,121.5480004,25.0388784,台北市 大安區
ChIJbzoD2c2rQjQRlY1xUnGfYIE,Le Partage 樂享小法廚,106台灣台北市大安區安和路一段90巷35號,4.2,813,121.5503513,25.0347567,台北市 大安區
ChIJSXaP9farQjQRcy4uXZB5u90,LAY BACK,106台灣台北市大安區通安街7號1樓,4.4,1221,121.5534315,25.032668,台北市 大安區
ChIJxcYXoSWrQjQRk0UEolx-iGM,The Tavernist,106台灣台北市大安區仁愛路四段27巷25號12F,4.5,1571,121.5454838,25.0404117,台北市 大安區
ChIJM31cRAmrQjQR_nkNjCOALqA,好吃食堂海鮮鍋燒 大安店,106台灣台北市大安區大安路一段8號,4.8,2487,121.5461302,25.0446679,台北市 大安區
ChIJtfvrqESrQjQR1EbDQ3SN5g0,青沐（大安店）,106台灣台北市大安區大安路一段52巷25號,4.3,922,121.544894,25.0432267,台北市 大安區
ChIJVV0ISSqqQjQRV3Yu84qzaTg,魚韻日式料理,106台灣台北市大安區瑞安街208巷24弄14號,4.8,3138,121.5400354,25.0286282,台北市 大安區
ChIJPWwjG02rQjQRzynbmBywDOE,de nuit,106台灣台北市大安區信義路四段175號,4.7,487,121.5505386,25.0334187,台北市 大安區
ChIJ90ln_c-rQjQRp2jywC1baXs,義大利餐廳 TRASTEVERE 大安區 忠孝復興站 美食,106台灣台北市大安區復興南路一段107巷7號1樓,4.4,1595,121.54462,25.0436636,台北市 大安區
ChIJxTLhpyg9aTQRecXNly6631M,77opèt Restaurant,106台灣台北市大安區復興南路一段279巷30弄3號1樓,4.6,1141,121.5452608,25.035437,台北市 大安區
ChIJW2hXnsirQjQReAynJ_RDVsY,La Piola Cucina Italiana,106台灣台北市大安區光復南路308巷45號,4.5,887,121.5557728,25.0388571,台北市 大安區
ChIJ2wpBPompQjQRnNdkOhvOaS8,左巴好室．好事,106台灣台北市大安區溫州街74巷1弄2號,4.6,3553,121.5326823,25.0195739,台北市 大安區
ChIJaw8UxcyrQjQRqR9nHaZHQnY,Orchid Restaurant 蘭,106台灣台北市大安區安和路二段83號,4.4,1515,121.5522005,25.0300451,台北市 大安區
ChIJhcpJPsarQjQR_r0Bmb_6zHg,ABV Bar & Kitchen,106台灣台北市大安區光復南路260巷39號,4.6,4679,121.5556808,25.0401435,台北市 大安區
ChIJOVviX8yrQjQRO1W-X8lg0JA,巷子口食堂,106台灣台北市大安區安和路二段35巷1號,4.4,1075,121.5527235,25.031806,台北市 大安區
ChIJryhpjFGrQjQRZgy0WI846oI,復古豪斯Retro House,106台灣台北市大安區復興南路二段193巷1號,4.8,677,121.5438859,25.026608,台北市 大安區
ChIJB8UY3NGrQjQRKDqBP98zPOA,老饕食堂,106台灣台北市大安區四維路8號,4.4,155,121.5480462,25.0370867,台北市 大安區
ChIJ-_bmcoepQjQRbyPEa9bOjoE,泔 米食堂,106台灣台北市大安區和平東路二段175巷12號,4.6,474,121.5417385,25.0255567,台北市 大安區
ChIJXcfVuYSrQjQROcYuv1Ti-Dg,文｜火｜處｜方 料理所,106台灣台北市大安區文昌街80號1樓,4.7,546,121.5511257,25.0327138,台北市 大安區
ChIJyxZfyDKrQjQRujZwkh7wl7Q,WILD DONKEY 野驢小餐館,106台灣台北市大安區忠孝東路四段216巷33弄5號,4.4,1602,121.5534026,25.0395153,台北市 大安區
ChIJmd3w156pQjQRlvHLwCofsW4,布夫 歐式私房菜 La Bonne Bouffe 瑞士起司專門店,106台灣台北市大安區仁愛路四段408巷13號,4.8,382,121.5569908,25.0371728,台北市 大安區
ChIJD9U3C4epQjQR7idvQVJyAvY,沾美藝術庭苑 Jimmy’s Garden,106台灣台北市大安區新生南路三段11巷5號,4.6,1800,121.5355325,25.025383,台北市 大安區
ChIJweovLs2rQjQRxNJvMGxKxMI,Snail 蝸牛義大利餐廳 敦南店,106台灣台北市大安區敦化南路二段81巷49號,4.6,3774,121.5506454,25.0300307,台北市 大安區
ChIJif-sI8arQjQR8xPQsGhwaqQ,豬跳舞小餐館,106台灣台北市大安區光復南路290巷48號,4.6,4468,121.5557327,25.0395031,台北市 大安區
ChIJgfp8ay6qQjQRcxepniNoKa8,樂食堂,106台灣台北市大安區臥龍街11號,4.4,803,121.546807,25.0242942,台北市 大安區
ChIJC0ET6dGrQjQRXAeCB9_CIQ0,凱恩斯岩燒牛排 台北大安店,106台灣台北市大安區四維路14巷6-1號,4.5,5479,121.5474087,25.0367324,台北市 大安區
ChIJyZKvmiuqQjQR2RPTk1xQsLA,賈福廚房 JFULL,106台灣台北市大安區復興南路二段148巷27號,4.4,399,121.541919,25.0283596,台北市 大安區
ChIJ8YyUot-rQjQRsW4WkASUMAE,家味軒精緻食堂/大安美食/大安區必吃/美食推薦/中華日式料理/附近美食/restaurants,106台灣台北市大安區樂業街57號,4.6,395,121.550587,25.0222093,台北市 大安區
ChIJC__DU9KrQjQR3iQYdYuTS9c,光司DATE 義大利麵 大安店,106台灣台北市大安區大安路一段242號,4.7,3377,121.5458865,25.0337289,台北市 大安區
ChIJk4jCMEurQjQR3vnyZGQDQrY,Cozy Taipei餐酒館,106台灣台北市大安區敦化南路一段190巷19號2樓,5,8317,121.5477218,25.0427472,台北市 大安區
ChIJJyEuVRurQjQRh3hC1-l-J1M,11PASTA Trattoria 食義_大安店,106台灣台北市大安區和平東路二段118巷2弄1號1樓,4.5,570,121.5427645,25.0244922,台北市 大安區
ChIJY3D-Fn-pQjQRgh3NaHSF8kM,六廚川客料理,106台灣台北市大安區信義路三段7號2樓,4.4,1720,121.5333309,25.0337972,台北市 大安區
ChIJKwZSytGrQjQRzl585-Teyig,沾美西餐廳,106台灣台北市大安區仁愛路四段77號B1,4.5,5680,121.5473628,25.0382682,台北市 大安區
ChIJLXLxDFyrQjQR-dHQa-BnbkI,立秋 Li Chiu,106台灣台北市大安區辛亥路二段171巷9號1樓,4.6,464,121.541175,25.0221351,台北市 大安區
ChIJk8-Zk9mrQjQRBEnxj2z9AG0,J&R義法,106台灣台北市大安區忠孝東路三段251巷13弄2號1樓,4.7,1096,121.5417299,25.0438633,台北市 大安區
ChIJxdRGEdirQjQRKLWOk-uOq5k,DOMANI 義式餐廳,106台灣台北市大安區建國南路一段65巷7號,4.3,996,121.5376874,25.0441364,台北市 大安區
ChIJCRKASPSrQjQRBwl5Ls2HO5k,醉好 Another Round,106台灣台北市大安區大安路一段19巷13號,4.7,1834,121.5469566,25.0445195,台北市 大安區
ChIJec_KyzaqQjQR1Nfja5rK97w,佐藤咖哩 和平總店,106台灣台北市大安區和平東路三段228巷9號,4.7,10485,121.5543695,25.0219762,台北市 大安區
ChIJpdhua9OrQjQRFSrQFoUcnJQ,饞食坊,106台灣台北市大安區信義路四段30巷58號,4.3,1754,121.5445399,25.031561,台北市 大安區
ChIJG2nsXs-rQjQRpRJ_Nf_Z6K8,Botega del vin,106台灣台北市大安區忠孝東路四段170巷17弄7號,4.4,2444,121.5514078,25.0399933,台北市 大安區
ChIJUcEGgSmqQjQRYCaPCUjkuHo,ANTICO FORNO 老烤箱義式披薩餐酒,106台灣台北市大安區瑞安街141號,4.4,2237,121.5396405,25.0266873,台北市 大安區
ChIJa4KblDOqQjQRA8xdL09TJUw,湘鼎坊,106台灣台北市大安區基隆路二段184巷1號,4.1,2003,121.5531735,25.0251913,台北市 大安區
ChIJU6Wht4apQjQRYlBcxJ1liEk,青田七六,106台灣台北市大安區青田街7巷6號,4.4,4086,121.5326468,25.0279832,台北市 大安區
ChIJV8swk9urQjQR1ee_CCk2Si0,真的好海鮮餐廳,106台灣台北市大安區復興南路一段222號1樓,4.3,1626,121.5434402,25.0391679,台北市 大安區
ChIJ7w-z48arQjQRKnV5zgurFBM,蝦老爹美式海鮮,106台灣台北市大安區光復南路180巷11號,4.5,4161,121.556883,25.042121,台北市 大安區
ChIJNWjazRerQjQRVP8tlGBHUhY,莆田 台北忠孝SOGO店,10691台灣台北市大安區忠孝東路四段45號12樓,4.8,10683,121.5449137,25.04194,台北市 大安區
ChIJLZbPPs2rQjQRgBSz55KQhPc,Second Floor 貳樓敦南店,106台灣台北市大安區敦化南路二段63巷14號,4.3,4337,121.550009,25.0308871,台北市 大安區
ChIJ0_ua_cWrQjQRIbUBC-UUu_E,秦味館 Qin Wei Guan,106台灣台北市大安區延吉街138巷2號,4.5,3653,121.55462,25.0398974,台北市 大安區
ChIJ6SD9j1OpQjQR9PEGhor-D9c,茱莉金牛排餐酒館,106台灣台北市大安區浦城街26巷2號,4.5,1712,121.526565,25.022762,台北市 大安區
ChIJT81rBaipQjQR6Jc9USFITI8,一甲子餐飲,108台灣台北市萬華區康定路79號,4.4,6090,121.5021711,25.0404022,台北市 萬華區
ChIJyyNcAlypQjQR9eK2YpdBP44,三重奏加蚋 Trio kitchen,108台灣台北市萬華區東園街114號,4.8,693,121.4972,25.024129,台北市 萬華區
ChIJc0dWY9erQjQR8RN1CdS7npE,樂野食,108台灣台北市萬華區武昌街二段37號5樓,4.6,3879,121.5077062,25.0446668,台北市 萬華區
ChIJjRzzCaipQjQRzNo88d0xnbo,三味食堂,108台灣台北市萬華區貴陽街二段116號,4.1,13518,121.5026538,25.039885,台北市 萬華區
ChIJa4mXFAmpQjQR8Yx-EvJM9tA,美觀園日本料理,108台灣台北市萬華區峨眉街47號,4.2,7839,121.5068628,25.0436857,台北市 萬華區
ChIJGaiHCqmpQjQReQD8Dmqjdvk,小王煮瓜,108台灣台北市萬華區華西街17之4號攤位153號,4.1,12441,121.4986043,25.0392193,台北市 萬華區
ChIJ2Xa6COqpQjQRCIXxgvtyX3c,JAI宅 義大利麵 西門店,108台灣台北市萬華區武昌街二段50巷10號2樓,4.4,4205,121.5066565,25.0439261,台北市 萬華區
ChIJ1UFLHaipQjQRC5ZDFnm8bpo,三十三間堂/台北美食/台北日本料理/台北無菜單料理/台北餐廳/萬華美食/西門町美食,108台灣台北市萬華區康定路116號,4.7,2057,121.5020392,25.0409821,台北市 萬華區
ChIJ1SHbtAmpQjQRwfQuYb31kN8,西門麵店,108台灣台北市萬華區內江街41號,4.3,11891,121.505581,25.041694,台北市 萬華區
ChIJPZVQ1FipQjQRHqGDCfQ8glU,紅巷 Red Alley｜臺式餐點 Taiwanese Cuisine,108台灣台北市萬華區漢中街171巷3號,4.8,619,121.5071721,25.0412698,台北市 萬華區
ChIJFaZWtwipQjQRXuH_MONw7II,Meat Up 覓晌 台北西門店｜早午餐｜義大利麵｜舒芙蕾｜寵物友善,108台灣台北市萬華區武昌街二段37號6樓,4.5,10561,121.5076793,25.0446517,台北市 萬華區
ChIJPQLBOwipQjQRw6qqpGL2YQg,AL REVÉS 餐廳 /顛倒restaurant,108台灣台北市萬華區昆明街131號,4.3,1284,121.5045576,25.0413795,台北市 萬華區
ChIJNxV77IOpQjQRDsYAd6-YWW0,拾士Shi-Shih-日式洋食，無預約制度,108台灣台北市萬華區康定路148號,4.9,148,121.5018465,25.0398,台北市 萬華區
ChIJdWeBHLepQjQRq08SjTyYfYY,好日子義式餐坊,108台灣台北市萬華區萬大路335號,4.5,674,121.5002476,25.0238072,台北市 萬華區
ChIJB_wial2pQjQRHZYJmy3ZKNo,職人丼深夜食堂 萬華店,108台灣台北市萬華區東園街35巷12號,4.7,616,121.4961482,25.0273528,台北市 萬華區
ChIJk40i2w6pQjQRMV9mtvGSoFg,星庭園精緻風味洋食坊,108台灣台北市萬華區漢口街二段53巷6號,4.4,1204,121.5062513,25.046206,台北市 萬華區
ChIJX4JLHaipQjQRfvkdSezeSEs,小林英夫日本料理/西門日本料理/萬華美食/台北平價美食推薦/台北日本料理/西門町美食/台北推薦餐廳,108台灣台北市萬華區康定路120號,4.5,1965,121.502012,25.040816,台北市 萬華區
ChIJ_e4jawmpQjQRsHArNoHZOME,新港茶餐廳,108台灣台北市萬華區漢中街52號7樓,4.1,4310,121.5072434,25.0437894,台北市 萬華區
ChIJI1PuTAmpQjQR3Zh9O8-IPCY,大眾食堂,108台灣台北市萬華區漢中街34-3號,4.5,3835,121.5075081,25.0449397,台北市 萬華區
ChIJMZFUaQmpQjQREAfsZb7q67A,A.K.12 美式小館-漢堡、義大利麵、飲料暢飲,108台灣台北市萬華區峨嵋街12號2樓,4.3,1878,121.5075622,25.0433286,台北市 萬華區
ChIJo7OG_d2pQjQRaNzCBrpkous,甘妹弄堂 - 西門店,108台灣台北市萬華區昆明街130號,4.2,3422,121.5047947,25.0433013,台北市 萬華區
ChIJVQJuIgOpQjQRnpi5PSAsQAE,鹿境早午餐 & 餐酒館_西門Arrival Brunch & Bistro (原 滷餐小酒館Zoo Bistro) ｜台式餐酒館|西門美食｜宵夜|滷味｜爌肉飯｜調酒｜酒吧｜早午餐｜西門必吃早午餐|在地推薦早午餐|漢堡|外帶早午餐|推薦早午餐｜人氣餐廳,108台灣台北市萬華區峨眉街124-3號1樓,4.9,818,121.5019968,25.0446197,台北市 萬華區
ChIJC9bmhw6pQjQRMzLaT4VIVCo,富宏牛肉麵,108台灣台北市萬華區洛陽街67-69號,4.2,20121,121.5077283,25.0475534,台北市 萬華區
ChIJoSkH1gipQjQR9GlRUDB6OgY,Buttermilk摩登美式餐廳(5F),108台灣台北市萬華區武昌街二段77號5樓,4.1,1080,121.5055717,25.0451617,台北市 萬華區
ChIJRxp9m6epQjQRct-a8HKEDR4,吃吃看小館 台北老味道餐廳,108台灣台北市萬華區貴陽街二段32號,4.4,730,121.505232,25.0394917,台北市 萬華區
ChIJX--8IQipQjQRs2uPQ15m7PI,花嘴廚房,108台灣台北市萬華區昆明街214-1號,4.3,5115,121.504299,25.040695,台北市 萬華區
ChIJoUCeU66pQjQRfM0ZEYp4JiM,台北凱達大飯店 家宴中餐廳,108台灣台北市萬華區艋舺大道167號3 樓,4.7,1978,121.500086,25.0334685,台北市 萬華區
ChIJGdBRaqepQjQR7NMzZvTESXA,皇家帝國麻辣火鍋,108台灣台北市萬華區中華路一段192號1樓,4.9,98753,121.506894,25.0387812,台北市 萬華區
ChIJ7U64LwmpQjQRf-tzrAv4f24,星期五美式餐廳(西門餐廳),108台灣台北市萬華區武昌街二段72號2樓,4.3,3689,121.506211,25.044807,台北市 萬華區
ChIJ6ed5D7upQjQR_mMtLKqvIjw,Stan & Cat 史丹貓美式餐廳 西門店,108台灣台北市萬華區昆明街138號,4.4,2495,121.50465,25.0426937,台北市 萬華區
ChIJ6WoLww6pQjQR2rI2AvC7sIs,RKZ Caf'e,108台灣台北市萬華區漢口街二段53巷17號,4.6,1202,121.5064473,25.0463745,台北市 萬華區
ChIJ6fj80s6pQjQRsJ6qmiJsGa0,金咕친구 韓式原塊烤肉 台北西門店,108003台灣台北市萬華區武昌街二段57號2、3樓,4.9,8527,121.5071909,25.0447708,台北市 萬華區
ChIJ8e8iyA6pQjQRxy0r7WyXn2M,我!就厲害燒肉放題西門珍饌店,108台灣台北市萬華區漢中街127號5F,4.6,8134,121.50769,25.0427947,台北市 萬華區
ChIJF45D7h-pQjQRo5SS_f8tmfo,尬鍋 台式潮鍋 台北西門店,108台灣台北市萬華區中華路一段78號1樓,4.8,23826,121.508804,25.045564,台北市 萬華區
ChIJU7cRla6pQjQRhchv-ZhGAis,艋舺熱海 海鮮餐廳,108台灣台北市萬華區和平西路三段162號,4.1,1686,121.4983294,25.035161,台北市 萬華區
ChIJxfi846WpQjQRaD-KflYi7NY,南海漁村 萬華店,108台灣台北市萬華區南寧路72號,4,1311,121.5036363,25.0351317,台北市 萬華區
ChIJ90uFRgmpQjQRSo9F_llemgI,定食8 西門店 日式海鮮丼專門店 台北市西門町平價定食 爭鮮餐飲集團,10842台灣台北市萬華區漢中街42號2樓,4.5,3441,121.5072709,25.0442343,台北市 萬華區
ChIJSTNnDQmpQjQRgRLoM3qZnP4,維記茶餐廳 西門店,108台灣台北市萬華區成都路27巷19號,4,3281,121.5069096,25.043175,台北市 萬華區
ChIJsTvfsg6pQjQRCk_3ZI36rk0,天天利美食坊,108台灣台北市萬華區漢中街32巷1號,4.1,7626,121.5075459,25.0449773,台北市 萬華區
ChIJ56e1yA6pQjQRa86JWGRZaTw,狗一下居食酒屋-西門店,108台灣台北市萬華區西寧南路34號1樓,4.6,6114,121.5066693,25.045827,台北市 萬華區
ChIJZ-rQtAmpQjQR8EtGCbLhhWM,囍愛義廚館FANCY PASTA-萬華外帶義大利麵|必吃義大利麵|義式燉飯|焗烤推薦|輕食沙拉餐|焗烤義大利麵|人氣餐廳|在地推薦餐廳,108台灣台北市萬華區內江街39號,4.4,1081,121.505634,25.041701,台北市 萬華區
ChIJwT6YCqmpQjQRlTsbd-lxYKE,阿義魯肉飯,108台灣台北市萬華區華西街19號,4.1,4389,121.4986002,25.039196,台北市 萬華區
ChIJq_4AErSpQjQR9A9qfSl1Evs,樂崎火鍋-萬華店,108台灣台北市萬華區東園街68號,4.8,6105,121.4964573,25.0258172,台北市 萬華區
ChIJU32eU66pQjQRhbvE4r33OLE,百宴自助餐廳,108台灣台北市萬華區艋舺大道167號5F,4,4058,121.4996955,25.0332225,台北市 萬華區
ChIJsSC8HAmpQjQRt8wDwALdjd8,店小二,108台灣台北市萬華區西寧南路70號B1,4.2,1042,121.5059808,25.0434394,台北市 萬華區
ChIJC9sUawmpQjQRgZ9zXjfIOGs,薩莉亞 西門店,108台灣台北市萬華區峨眉街37號2樓,4,7610,121.5071583,25.0435587,台北市 萬華區
ChIJaWKuo7upQjQRjUG-i60g1DM,青園食堂,108台灣台北市萬華區中華路二段498巷23號,4,315,121.5068955,25.0262109,台北市 萬華區
ChIJL91M3g6pQjQRe0AJLluJmlU,打狗霸 TAKAO1972 昆明店,108台灣台北市萬華區昆明街46號,4.2,7503,121.5057441,25.0465316,台北市 萬華區
ChIJl9MJJgmpQjQRSw3-qphv2qg,金園排骨萬年店,108台灣台北市萬華區西寧南路70號B1,4.4,5445,121.5058343,25.0435413,台北市 萬華區
ChIJHVOyaqmpQjQR38Uv-AgJHcQ,華西街台南擔仔麵海鮮餐廳,108台灣台北市萬華區青山里華西街31-1號,4.3,649,121.4984492,25.0380171,台北市 萬華區
ChIJZUypSA-pQjQRpTIuzGdVkak,施福建好吃雞肉,108台灣台北市萬華區環河南路一段25巷4號,4.1,4649,121.5040355,25.0467004,台北市 萬華區
ChIJtbu-JE2oQjQRdRYZ7jLitwE,珍寶園餐廳,108台灣台北市萬華區環河南路二段308號,4.1,576,121.4903537,25.0310872,台北市 萬華區
ChIJi0b12AipQjQRAzCoNJDN9Pc,樂麵屋 西門店,108台灣台北市萬華區昆明街25號,4.2,3451,121.505404,25.0447969,台北市 萬華區
ChIJYa1-V66pQjQR9sW7fqBISEo,"美觀園日本料理 Merry Cuisine（36號本舖）｜台北城老舖烹派日料 - 大器吃喝,老少嗨樂！",108台灣台北市萬華區峨眉街36號,4.4,2514,121.5066139,25.0434641,台北市 萬華區
ChIJ18GabMapQjQR8VyCBGC9qrE,煮夫飯館,108台灣台北市萬華區東園街28巷7號,4.8,232,121.495402,25.026883,台北市 萬華區
ChIJ5-PXYwmpQjQRgP00DljFP6A,紅磡港式飲茶婚宴會館 中華店,108台灣台北市萬華區中華路一段144號2樓,4.5,10281,121.5080755,25.043161,台北市 萬華區
ChIJ1SDd0LCpQjQRDSV--yo9lEk,品鮨日式料理-萬大店,108台灣台北市萬華區萬大路258號,4.6,1004,121.5003226,25.0260458,台北市 萬華區
ChIJi475b6epQjQRlF1j2NEtN54,開開看江浙小吃,108台灣台北市萬華區漢中街147巷5號長沙街2段9號進入可從,4.1,1545,121.5071285,25.0408804,台北市 萬華區
ChIJKy2d2CCpQjQRsyBEMSVSsGo,極簡燒烤火鍋-萬華店/壽星生日最低5折起/日本A5和牛燒肉火烤二吃/台北第一麻辣小龍蝦/嫩肩梅花豚火鍋,108台灣台北市萬華區西園路一段216號2樓,4.9,1241,121.4992215,25.0355325,台北市 萬華區
ChIJ__m7jQipQjQR0l1oiGhOohk,真川味1店,108台灣台北市萬華區康定路25巷42之一號1樓,4.1,3610,121.504664,25.043541,台北市 萬華區
ChIJL6olmHSrQjQRLQ7itONyGgs,樂軒松阪亭,110台灣台北市信義區松高路19號6樓,4.8,3870,121.5667147,25.0395325,台北市 信義區
ChIJpzAkec2rQjQRLYceVmNNtq4,默爾 (台北信義威秀店),110台灣台北市信義區松壽路20號2樓,4.8,2003,121.5672596,25.0352646,台北市 信義區
ChIJTb-0xPqrQjQRyldoASUCmPU,gubami Social,110台灣台北市信義區松壽路9號6樓,4.4,848,121.5668589,25.0362945,台北市 信義區
ChIJYzLihrurQjQRVmV1XPoNuks,艾朋牛排餐酒館,110台灣台北市信義區忠孝東路五段139號2樓,4.7,10837,121.5678138,25.0412825,台北市 信義區
ChIJ_8Yu0WqrQjQRxQx5jtrvakM,rén bistronomy,110台灣台北市信義區松仁路90號,4.8,725,121.5679889,25.0351042,台北市 信義區
ChIJk-t4sLGrQjQRG0XNTYo1jgg,JOYCE EAST,110台灣台北市信義區信義路五段128號1樓,4.3,691,121.5692072,25.032393,台北市 信義區
ChIJ6ere6rurQjQRCmicPiS523g,INPARADISE 饗饗 微風信義店,110台灣台北市信義區忠孝東路五段68號微風信義46樓,4.2,11284,121.5671637,25.0405099,台北市 信義區
ChIJtc-KWvurQjQR3ePz0SetDRE,吾界 Teppanyaki,110台灣台北市信義區信義路六段119號,4.7,391,121.578256,25.036336,台北市 信義區
ChIJEbkgt6urQjQReBGcJ4HRG2Y,食令shabu ∣ 台北101頂級鍋物,110台灣台北市信義區市府路45號四樓,4.7,2896,121.564101,25.0334929,台北市 信義區
ChIJ1S3Z6barQjQRUnd4BwJ6NkY,隨意鳥地方101景觀餐廳,110台灣台北市信義區信義路五段7號85F,4.1,4714,121.5649428,25.0335715,台北市 信義區
ChIJeYBhGberQjQRAH3dKYsaHtc,A Beach 101&Pizza,110台灣台北市信義區信義路五段18號B1,4.5,2163,121.5636499,25.0325687,台北市 信義區
ChIJbZMi8smrQjQRFjiDk2bA2X4,米家義廚migakitchen,110台灣台北市信義區信義路四段395巷6弄12號1樓,4.3,1569,121.5590675,25.0335517,台北市 信義區
ChIJZVGPdlCrQjQRYQbyyBX7IaI,旬味 自然鍋物-台北美食 信義區美食 信義區火鍋 信義區外帶美食 信義區好吃推薦 信義區高CP值火鍋鍋物 寵物友善,110台灣台北市信義區逸仙路50巷18號,4.9,2357,121.5626557,25.0405031,台北市 信義區
ChIJ_Y4vZzKrQjQRcqCqvdGszQQ,輪輪1976 和食茶酒駅/ Lun Lun1976/台北信義餐酒館/包廂餐廳,110405台灣台北市信義區松壽路11號3樓,4.3,1329,121.5674227,25.0360891,台北市 信義區
ChIJbwzev3arQjQRYhE7fLo9EnI,饗 A Joy,110台灣台北市信義區信義路五段7號86樓,4.4,2798,121.5645389,25.033976,台北市 信義區
ChIJxQqtNbqrQjQRzAQGmRHK4mw,珍寶海鮮 台北信義店,"3F, No. 12號松高路信義區台北市台灣 110",4.4,3179,121.5667774,25.0387499,台北市 信義區
ChIJQeGuX7mrQjQRaWkzgt7mxpU,星期五美式餐廳 信義餐廳,110台灣台北市信義區忠孝東路五段8號2樓,4.3,4345,121.5653917,25.0407344,台北市 信義區
ChIJK6H_Z7KrQjQRv62sCQVMx9o,紐澳良小廚 信義象山店,110台灣台北市信義區信義路五段150巷14弄16號,4.2,2043,121.5697873,25.0284231,台北市 信義區
ChIJK642HcqrQjQR42j9RUyIKgI,心月,110台灣台北市信義區信義路四段466號,4.4,611,121.5589804,25.032723,台北市 信義區
ChIJsZoO7FOrQjQR8x55hLnwBDU,稻舍食館 Rice & Shine 微風信義店,110台灣台北市信義區忠孝東路五段68號4 樓,4.6,398,121.5669779,25.0405482,台北市 信義區
ChIJC1PDcsmrQjQR_f22mdWyC-g,SHANN SHANN 小香 台北三越信義店,110台灣台北市信義區松壽路9號6樓,4.7,936,121.5668588,25.0363104,台北市 信義區
ChIJI-uHec6rQjQRolls8XbSbdY,心潮飯店,110台灣台北市信義區忠孝東路五段68號2樓,4.3,2838,121.5665695,25.0405014,台北市 信義區
ChIJPbbLlLurQjQRumJSj8aVbmk,莫爾頓牛排館,110台灣台北市信義區忠孝東路五段68號45F,4.3,5572,121.5668964,25.0405044,台北市 信義區
ChIJ5SSP_XWrQjQRC_HHQ6igu0g,HANNA Pasta Café パスタ カフェ,110台灣台北市信義區逸仙路42巷17號,4.5,1323,121.5628713,25.0402655,台北市 信義區
ChIJMxoKdLqrQjQRiFDQr8nIhug,Miacucina信義店,110台灣台北市信義區松壽路11號2 樓,4.2,4319,121.5669828,25.0376616,台北市 信義區
ChIJscOyg6GrQjQR-qj7zmAdswE,鳥作洋食 TORI Yoshoku,110台灣台北市信義區忠孝東路四段553巷16弄2號1樓,4.4,557,121.5630504,25.0426146,台北市 信義區
ChIJg5qWU7irQjQR2loPcpgDxdE,30Thirty老酒館（營業時間以IG為主）,110台灣台北市信義區逸仙路26巷17號,4.4,1833,121.5624467,25.0397811,台北市 信義區
ChIJrSZypLCrQjQRJ2NhICGN2JA,老乾杯 信義店,110台灣台北市信義區松壽路9號新光三越 A9 館8樓,4.2,1996,121.5667157,25.0365352,台北市 信義區
ChIJES0K7O-rQjQRH9WSuqTxBbc,Smith & Wollensky - Taipei,110台灣台北市信義區松智路17號47F,4.4,5088,121.5673522,25.0342883,台北市 信義區
ChIJB3VqqLurQjQR2mNcCzP0Xgk,合.shabu ∣ 信義區頂級鍋物,"4F, No. 28號松仁路信義區台北市台灣 110",4.6,3956,121.567641,25.0396219,台北市 信義區
ChIJdenxs0qrQjQRM63tH_cS6Ks,SEA TO SKY - Seafood&Bar,110台灣台北市信義區忠孝東路五段68號47F,4.2,948,121.5669495,25.0401799,台北市 信義區
ChIJRRyG_YyrQjQRLVtrXvdemBc,HOOTERS美式餐廳 信義店,110台灣台北市信義區松仁路58號14樓,4.7,5489,121.5681307,25.036672,台北市 信義區
ChIJFSbe67SrQjQRclTQpMiSzVA,Creative Pasta 創義麵 信義店,110台灣台北市信義區莊敬路327號,4.2,2318,121.5640382,25.0281763,台北市 信義區
ChIJ1eXQShWrQjQR-9Ev_CR9KkI,初泰信義象山門市,110台灣台北市信義區信義路五段122號,4.5,2578,121.5688461,25.0322831,台北市 信義區
ChIJS6tN5nCrQjQRViIItrTnwug,稻舍食館 Rice & Shine 統一時代店,110台灣台北市信義區忠孝東路五段8號號 B2,4.4,697,121.565466,25.0404655,台北市 信義區
ChIJjwfWf7CrQjQR8HEILkaBigk,勞瑞斯牛肋排餐廳,110台灣台北市信義區松仁路28號6樓,4.3,3268,121.5678702,25.039633,台北市 信義區
ChIJc_6fMzerQjQRHcqXwpPVxFo,SALT&STONE 台北101餐廳,110台灣台北市信義區市府路45號4樓,4.5,3979,121.5649898,25.0343876,台北市 信義區
ChIJcxkKdLqrQjQRy2l5-4JFwFk,檀島香港餐廳_信義店,"B1, No. 11號松壽路信義區台北市台灣 110",3.5,3611,121.5672633,25.0368522,台北市 信義區
ChIJC6mZ2WirQjQREZ3Spd4j7qg,犇 極上 微風信義館,110台灣台北市信義區忠孝東路五段68號微風信義4樓,4.6,2744,121.5667912,25.040548,台北市 信義區
ChIJQXcl6LarQjQRGUMnQ18F0lE,鼎泰豐 101店,110台灣台北市信義區市府路45號B1,4.5,12498,121.5646596,25.0333371,台北市 信義區
ChIJfY_HnrCrQjQRxus0Ujf7Q24,吉比鮮釀餐廳 台北信義店 GBA Brewery Restaurant - Taipei Hsinyi Store,110台灣台北市信義區松壽路11號2樓,4.3,3650,121.5671263,25.0371587,台北市 信義區
ChIJHd7EPMarQjQRNjXqec_9Cys,The Chips 信義店,110台灣台北市信義區松壽路12號5 樓,4.1,2064,121.5660665,25.03531,台北市 信義區
ChIJPbbLlLurQjQReNJaofMjXFE,泰集 微風信義店,110台灣台北市信義區忠孝東路五段68號4樓,4.4,2605,121.5668964,25.0405044,台北市 信義區
ChIJVS7ItnmrQjQRqNmHO0yS0yI,The Ukai Taipei,110台灣台北市信義區松智路17號46樓,4.3,1220,121.5671232,25.0342406,台北市 信義區
ChIJYbLlbUarQjQRDDkNSHZLU_A,MiraWan Eatery,110台灣台北市信義區松智路17號47樓,4.2,852,121.5671259,25.0344484,台北市 信義區
ChIJzSPA47yrQjQRReFdmPmEKUM,亞米小廚 yummy kitchenette,110台灣台北市信義區永吉路30巷101弄16號,4.7,876,121.5693745,25.0434229,台北市 信義區
ChIJny7cm_mrQjQRXc1MKexwNQA,隱世餐酒館(台北永春店),110台灣台北市信義區忠孝東路五段297號B1F,4.6,1415,121.5731869,25.0411201,台北市 信義區
ChIJVZuw9GqrQjQRu9Kk7aDZWhw,日本橋海鮮丼辻半 微風信義店,110台灣台北市信義區忠孝東路五段68號 B1F地下一樓,4.3,3032,121.5668746,25.0403175,台北市 信義區
ChIJ4Qky6surQjQRyBWKG9Pk3lA,義饗屋 di CaSa 台北信義遠百店,110台灣台北市信義區松仁路58號B3,4.4,401,121.5677876,25.036708,台北市 信義區
ChIJhxtvkqOrQjQRbbpjh4uldU8,GYUU NIKU ステーキ專門店,110台灣台北市信義區忠孝東路五段412-6號,4.7,9367,121.5752978,25.0404527,台北市 信義區
ChIJreG3krurQjQR15m8X0l8ybk,點點心台灣 信義形象店,110台灣台北市信義區忠孝東路五段68號微風信義B1,4.1,5404,121.5665457,25.0406764,台北市 信義區
ChIJBaF_VrirQjQRvZhFUoL5--I,屋頂上的貓私廚,110台灣台北市信義區逸仙路32巷9號1樓,4.4,541,121.5623362,25.0399382,台北市 信義區
ChIJt7JDM4KrQjQRjbeuPqbQQ8A,Wayne’s New York 瑋恩紐約美式龍蝦牛排餐廳,110台灣台北市信義區基隆路二段81號,4.6,1091,121.558035,25.0301672,台北市 信義區
ChIJVSCY9MmrQjQRTaZWqa03IHU,丰明殿御皇鍋物-信義殿,110台灣台北市信義區信義路四段393號,4.8,6816,121.5585386,25.033316,台北市 信義區
ChIJrSZypLCrQjQRdNWuZqKdwqM,欣葉台菜 信義新天地A9店,110台灣台北市信義區松壽路9號8樓,4.1,2177,121.5667018,25.0366706,台北市 信義區
ChIJkwrfdyGrQjQRcFyBCLfqGGI,刁民-酸菜魚 信義店,110台灣台北市信義區松壽路12號1 樓,4.5,3273,121.5660665,25.03531,台北市 信義區
ChIJW9eMArmrQjQRu01QlV9Ome8,Cin Cin Osteria請請義大利餐廳(逸仙店),110台灣台北市信義區逸仙路50巷22號,4.3,2877,121.5627837,25.0405031,台北市 信義區
ChIJvZks39avQjQR3Vo7qkc23zY,金孫韓廚 義大利麵(士林店),111台灣台北市士林區中山北路五段505巷20號,4.7,3645,121.5272075,25.0932328,台北市 士林區
ChIJWW34AmGvQjQRPpdckEU-j7Q,味擂家みらい家日式料理（無訂位服務）,111台灣台北市士林區福壽街1號1樓,4.9,4819,121.5256736,25.0955419,台北市 士林區
ChIJ7wNaysSvQjQR_SXHqoILp1k,村民食堂廚窗港點 士林官邸店,111台灣台北市士林區福林路 188號和190號,4.5,11070,121.5327853,25.0966897,台北市 士林區
ChIJ67abfVavQjQRscMhuF5_tQA,小倉庫食研所,111台灣台北市士林區福佳里美崙街86巷2號1樓,4.8,10745,121.5213135,25.0969916,台北市 士林區
ChIJvYcdrlOvQjQRZ_5wNZRyEA0,日向洋食 HINATA （不開放當日訂位，可現場候位）,11143台灣台北市士林區大西路35號,4.7,10504,121.5243648,25.0906094,台北市 士林區
ChIJtSeOoqKuQjQRZ_YxmJ94R2E,天母盛鑫-士林聚餐餐廳|歐式料理|歐式餐廳|特色餐廳|必吃異國料理|異國美食|異國料理推薦|在地推薦餐廳,111台灣台北市士林區中山北路五段729號,4.3,1973,121.526962,25.0982984,台北市 士林區
ChIJz3L1lDSpQjQRDMyklAb5FpY,Bona 富光廚房,"No. 34 No, No. 34號葫蘆街士林區台北市台灣 111",4.8,2525,121.5097438,25.0801286,台北市 士林區
ChIJSxHVM_OvQjQRVXbGAenRppE,士林貳貳參丼飯,111台灣台北市士林區中正路223巷11號,4.9,2574,121.5264319,25.0949137,台北市 士林區
ChIJsU0If6ivQjQRwIx85Fv2f_o,小肚子私房料理,111台灣台北市士林區福華路141巷6號,4.8,1221,121.5220227,25.1029799,台北市 士林區
ChIJd9QKFaWuQjQRLPGO-ltaXj4,歡樂便所主題餐廳,111台灣台北市士林區文林路173號2F,4.7,4124,121.5268333,25.0895891,台北市 士林區
ChIJ_3LZiLyvQjQR3SvEA0zV4Hk,大俠請留步,111台灣台北市士林區文林路188號,4.8,3379,121.5271151,25.0897344,台北市 士林區
ChIJhSV_pKSuQjQRtJ-1sSeP4R8,荷麵亭 HASUMENTEI 士林店,111台灣台北市士林區中山北路五段505巷42弄2號,4.6,4844,121.5266429,25.0931168,台北市 士林區
ChIJy_uSHZeuQjQRkIZPihOvkxk,老倉庫,111台灣台北市士林區福華路146號,4.6,6153,121.5227565,25.1033725,台北市 士林區
ChIJZcgOlIeuQjQRutc16fs58Hg,八藤家,111台灣台北市士林區天母西路41巷1弄2號,4.8,1904,121.5272888,25.1189736,台北市 士林區
ChIJge0A1GmvQjQRJpe5wYgCeNM,隱家拉麵 士林店,111台灣台北市士林區中山北路五段505巷22號,4.4,3434,121.5271462,25.0931823,台北市 士林區
ChIJvwDbIb2uQjQRZDfl_UYYHkE,Bremen不萊梅,111台灣台北市士林區文林路514-1號,4.3,2548,121.5241851,25.0970553,台北市 士林區
ChIJDcQp3hSvQjQRHMzTwyVALwI,MaoInn Steak 錨隱廚牛排館 天母西餐廳,111台灣台北市士林區忠誠路二段40巷16號,4.7,475,121.5293918,25.1103158,台北市 士林區
ChIJaW5qRZeuQjQRXS0fztFQle8,Want More,111台灣台北市士林區中山北路六段43-2號,4.7,994,121.5246855,25.1039675,台北市 士林區
ChIJEZLberGuQjQRWJ5reNTAf_g,胃太小私房菜,111台灣台北市士林區福國路56巷12-1號,4.3,1413,121.5233635,25.1029483,台北市 士林區
ChIJASUZtbquQjQRNQwpDbydjLI,食尚曼谷,111台灣台北市士林區大東路54號,4.3,2270,121.5254826,25.089749,台北市 士林區
ChIJ_____5auQjQRFoM9xHbmMI4,洪樓,111台灣台北市士林區德行西路25號,4.4,1395,121.5238953,25.106114,台北市 士林區
ChIJ81qGnLGuQjQRIU47pANj8Z8,Le Flam 樂芙坊,111台灣台北市士林區前港街6號,4.5,1258,121.5230568,25.0846563,台北市 士林區
ChIJy6kHWkavQjQRWAo3ix9rCWI,喫・東西 Cucina,111台灣台北市士林區中山北路六段35巷25號,4.9,272,121.524831,25.1030569,台北市 士林區
ChIJGUQiXkmvQjQRo59OxREZD-I,士林廚房,11141台灣台北市士林區中山北路五段470巷8號1樓,4,2328,121.5291482,25.092956,台北市 士林區
ChIJ5Z0bHpeuQjQRm7K3Imosj4M,豚馬日本料理,111台灣台北市士林區福華路152號,4.8,6451,121.5227334,25.1035357,台北市 士林區
ChIJV0eTjoSuQjQRvsQfkTLpHo8,多摩食堂,111台灣台北市士林區忠誠路二段50巷2號1樓,4.4,2091,121.5301947,25.1108499,台北市 士林區
ChIJ8cB1EeatQjQRzyJE5xssb_M,Boulevard Cafe 林蔭美式餐酒食(供餐至20:00，週五六供餐至21:00),111台灣台北市士林區至善路二段33號,4.6,814,121.5442216,25.0973762,台北市 士林區
ChIJMbJ6nXavQjQRPqoF3wQAGdI,天町燒肉屋芝山店,11155台灣台北市士林區中山北路六段35巷31號,4.9,4867,121.524817,25.1028875,台北市 士林區
ChIJ8d31sryuQjQRYRWoyUaa2YM,Creative Pasta 創義麵 士林店,111台灣台北市士林區美德街32號近士林捷運站1號出口,4.2,2306,121.5255797,25.0947172,台北市 士林區
ChIJ_1vCIlWvQjQRjo4z7gh-Gf8,PRESERVE 天母,111台灣台北市士林區天母東路43巷3號,4.6,967,121.5322946,25.1184743,台北市 士林區
ChIJfXEL4k-vQjQRJHYGfuMu4Tc,Sun Bistro餐酒館（全時段供餐份量飽足友善餐廳無收取服務費歡迎包場免收取場地費）,111台灣台北市士林區天母西路41巷8號,4.6,358,121.5275068,25.1191026,台北市 士林區
ChIJka76UoiuQjQR4ZXn7u78VvE,莎諾西餐,112台灣台北市北投區天母西路105號,4.5,2462,121.5237127,25.1188307,台北市 士林區
ChIJfWGyPn2uQjQR64K_LG8uJ8Y,Snail 蝸牛義大利餐廳 天母店,111台灣台北市士林區天母北路60號,4.7,3611,121.5266724,25.1216133,台北市 士林區
ChIJ49WFWqOuQjQRrf0Diips1Oo,歐品鄉廚,111台灣台北市士林區中正路235巷32號士林捷運1號出口旁,4,1690,121.5261329,25.0943943,台北市 士林區
ChIJJY6BPuetQjQR3xJ6PSp3Cj0,台之最餐廳,111台灣台北市士林區愛富一街2號,4.5,582,121.5460147,25.1384239,台北市 士林區
ChIJT2Un5X-uQjQRp0RnkammO5Q,金蓬萊遵古台菜餐廳,111台灣台北市士林區天母東路101號,4.3,4476,121.536256,25.1182833,台北市 士林區
ChIJUd4MsVWvQjQRV_p8L8Sw09Y,典華雅聚 士林店,111台灣台北市士林區福華路114號,4.3,1619,121.5229729,25.1023265,台北市 士林區
ChIJWXWwSaOuQjQRmqHpEXEiiac,劉家棧香港煲仔飯專賣店（台灣水草俱樂部餐館）,111台灣台北市士林區中正路235巷5號1樓,4.3,1177,121.5260976,25.0949582,台北市 士林區
ChIJUXPdsoCuQjQRqbxQ0TEjlgg,方家小館,111台灣台北市士林區天母東路7號,4.2,2175,121.531388,25.1182237,台北市 士林區
ChIJwYqqLCGvQjQRsTBPcxjXj7Y,好吧,111台灣台北市士林區天母東路84號1樓,4.8,1504,121.5355752,25.1179393,台北市 士林區
ChIJr_Ztmn2uQjQRvLHz4FTo-_Q,大為廚坊,111台灣台北市士林區天玉街38巷9-1號,4.6,434,121.5291255,25.1204359,台北市 士林區
ChIJ2SJ2x6mvQjQRZit4gMTJ-ZM,萬麗軒,111台灣台北市士林區中山北路五段470巷8號1樓,4.3,987,121.5291939,25.093188,台北市 士林區
ChIJY-WhLbuuQjQRspXCBrQnwRo,百八龍拉麵,111台灣台北市士林區大東路133號,4.4,1838,121.525384,25.091818,台北市 士林區
ChIJ5XYjM6OuQjQRo-u6wvOrnLI,寶飽煲,111台灣台北市士林區福壽街3號,4.2,2828,121.5256461,25.0956502,台北市 士林區
ChIJn38a932uQjQRfEng8ILihp0,初芽 Sprout,111台灣台北市士林區忠誠路二段166巷7號1樓,4.1,1501,121.5328793,25.1155386,台北市 士林區
ChIJ_WxzGIuvQjQRSN405YUIsDQ,樹懶咖哩(士林),111台灣台北市士林區美德街104號,4.5,746,121.5249275,25.096691,台北市 士林區
ChIJrX8YU7yvQjQRciFBe_MMUhA,忠青商行 天母大葉高島屋店,111台灣台北市士林區忠誠路二段55號B1,4.7,1850,121.5315215,25.1118264,台北市 士林區
ChIJ24Za5H-uQjQRVinjqQDbZUo,女娘的店,111台灣台北市士林區天母東路97號,4.3,1290,121.5360647,25.1183396,台北市 士林區
ChIJWUVw-nevQjQR1SU2xzyuGZY,HI MATE ! 【供餐至15:30】,111台灣台北市士林區劍潭路80號1樓,4.5,874,121.5206199,25.0828378,台北市 士林區
ChIJUW1ks36uQjQRVioemMQWgqs,興蓬萊台菜海鮮餐廳,111台灣台北市士林區中山北路七段55號,4.2,3128,121.5309519,25.1204659,台北市 士林區
ChIJrY4R4pquQjQRfJn6HsDsQTs,榕屋Pasta,111台灣台北市士林區德行東路104巷6號1樓,4.4,728,121.5283846,25.1073803,台北市 士林區
ChIJrebBtbOuQjQRbkSo7owLB9c,澤 日本料理 Sawa,111台灣台北市士林區大南路248號B1,4.8,3514,121.5203839,25.088658,台北市 士林區
ChIJW5esxZeuQjQRlWxyAQ4gFyE,士林廣澤擔仔麵｜芝山捷運站美食｜士林排隊美食｜天母推薦人氣必吃餐廳,111台灣台北市士林區福華路10號,4.1,1784,121.5235122,25.1005143,台北市 士林區
ChIJP9NOG2yvQjQRaS3wT8t85kY,John的料理/士林官邸美食/無提供化妝室,111台灣台北市士林區福林路197號1樓,4.8,206,121.5329306,25.097145,台北市 士林區
ChIJYwFLYQCvQjQRPB0ib69MaKo,旭集 和食集錦 天母店,111台灣台北市士林區忠誠路二段55號5樓,4.3,2376,121.531367,25.111857,台北市 士林區
ChIJg10Jb_6vQjQRdk2voN26lqA,小聚人x涮涮鍋｜在地特色火鍋｜士林美味火鍋｜罕病病友夢想園地｜愛心待用餐,111台灣台北市士林區文林路527號1樓,4.9,1244,121.5239528,25.097122,台北市 士林區
ChIJpwJIT6WuQjQRw0vYVcv1nZY,食來運轉,111台灣台北市士林區小東街31號,4.2,3448,121.5262226,25.0893467,台北市 士林區
ChIJHZ56gp6uQjQRYaoc4dyx2lM,吉祥小館,111台灣台北市士林區雨農路31號,4.3,819,121.5322408,25.0989039,台北市 士林區
ChIJS4oBuo2vQjQR6uE94MhUPwY,三攀泰-天母店(無訂位，僅現場候位）,111台灣台北市士林區德行東路27號,4.5,576,121.5259929,25.1069634,台北市 士林區
ChIJA3txLQ-vQjQRfs0js-Ul7bs,聚 日式鍋物 台北士林中正店,111台灣台北市士林區中正路179號,4.9,6937,121.5275851,25.0955156,台北市 士林區
ChIJA9_TFFmvQjQRA-tp1e3KJlo,雙月食品社 北投店,112台灣台北市北投區光明路228號,4.9,10227,121.505752,25.1358382,台北市 北投區
ChIJl7ziPQCvQjQRJyCcG50hMUo,三燔北投 Mihan Beitou,112台灣台北市北投區泉源路19號北投晶泉丰旅2樓,4.9,1965,121.5044611,25.13815,台北市 北投區
ChIJb6eU51auQjQRxy44Lb9d14o,蒔蘿香草蔬食餐廳,112台灣台北市北投區北投路二段7號,4.2,1990,121.4992856,25.1304732,台北市 北投區
ChIJS55Pk1euQjQRphqEK5PBdAM,葉子異國小廚坊,112台灣台北市北投區復興四路8巷4號,4.5,1023,121.4998627,25.1414121,台北市 北投區
ChIJD4HISTevQjQRXK-sFxTTlFU,甘水堂,112台灣台北市北投區中和街278號,4.9,571,121.500532,25.1403259,台北市 北投區
ChIJw-RrmtKvQjQRsXrpHF7qSCQ,谷炭燒肉/北投美食 北投燒肉 北投餐廳 石牌美食 石牌燒肉 石牌餐廳,11282台灣台北市北投區裕民六路114巷22號,4.9,2300,121.5180862,25.114316,台北市 北投區
ChIJhdUJQkWuQjQRBjl-hfM5hUo,PURE CUISINE,112台灣台北市北投區中和街2號1F,4.3,534,121.503704,25.1375891,台北市 北投區
ChIJ6RR3U3GvQjQRmFa2ScNW-xY,左爺爺風味小館,112台灣台北市北投區明德路59號,4.8,279,121.5183326,25.1082016,台北市 北投區
ChIJeyrNBUKuQjQR9nEJ_PLE_Ps,少帥禪園-台北北投張學良幽禁舊居,112台灣台北市北投區幽雅路34號,4.2,2090,121.5138992,25.1385739,台北市 北投區
ChIJxT54hmKvQjQRyEf7KYJIkS8,酒米食堂chumi_canteen－北投店beitou,112台灣台北市北投區永興路一段47號,4.9,3471,121.5004795,25.1395295,台北市 北投區
ChIJe20-7lOuQjQRzfKxBZfB19E,喬園海鮮料理餐廳,112台灣台北市北投區大業路512號,4.2,3002,121.496054,25.13336,台北市 北投區
ChIJb3wiSkWuQjQRYj2ArhtpNoU,陶板屋 新北投光明店,112台灣台北市北投區光明路217號2F,4.5,4267,121.5038407,25.1362643,台北市 北投區
ChIJqzV-SFuuQjQRIpnzP-xiypc,北投奇岩一號,112台灣台北市北投區奇岩路1號,4.7,396,121.5072708,25.1347904,台北市 北投區
ChIJKSEgYwiuQjQRpcFwMz8k-QI,六窟（無預約/無訂位）,112台灣台北市北投區湖底路81號,4,3562,121.5368354,25.1533352,台北市 北投區
ChIJCQNN0VauQjQRE7_sDeR48nU,牙口,112台灣台北市北投區大興街9巷45號,4.5,679,121.4971597,25.1309108,台北市 北投區
ChIJ2wW-fZivQjQRiHD4u7B-fZI,同岳軒｜ 正宗港式飲茶 粵菜料理 ｜港式點心 平價茶餐廳｜人氣美食 年菜外帶宅配推薦,112台灣台北市北投區中央北路四段538號,4.3,327,121.467516,25.1282224,台北市 北投區
ChIJhStjrU-uQjQR2vkiU-gRAMo,梅苑小館,112台灣台北市北投區永興路一段30號,4.3,1030,121.500018,25.139004,台北市 北投區
ChIJMYuEPFGuQjQRjKxo6FUz8as,樂山窄巷拉麵,112台灣台北市北投區大同街27號,4.1,2159,121.4990338,25.1329568,台北市 北投區
ChIJ64wm5WmuQjQRZ0BQwNMuyBM,北投文物館,112台灣台北市北投區幽雅路32號,4.5,3820,121.5143725,25.138189,台北市 北投區
ChIJf5b9IeOvQjQRXyHwj63mp6A,北投飢廠,112台灣台北市北投區中央北路三段17-1號,4.5,225,121.485987,25.137928,台北市 北投區
ChIJG5z34UivQjQRXAeBM3oBS6I,百鍋匯 北投美食,112台灣台北市北投區新興路158巷14號,4.7,216,121.4864623,25.1389861,台北市 北投區
ChIJew6ZUEevQjQRcqtDTBwck0w,北投文物館-怡然居餐廳,112台灣台北市北投區幽雅路32號,4.7,80,121.5141838,25.1382433,台北市 北投區
ChIJg2MM8VGuQjQRF16ushVKQGw,上享庭園餐廳,112台灣台北市北投區中央北路一段228巷1弄4號,4.3,1272,121.4975171,25.136724,台北市 北投區
ChIJ_fFccXivQjQRQrVr4JQoLsU,漁當家食堂-請洽臉書IG預約,112台灣台北市北投區裕民四路13號,4.7,307,121.5162416,25.1154853,台北市 北投區
ChIJt9ZriU-uQjQR_Afw8Cu8erk,記憶的溫度,112台灣台北市北投區珠海路38號,4.3,1257,121.5024221,25.1380533,台北市 北投區
ChIJbe2hrQyvQjQRRntz_54mX3U,Bonita廚房,112台灣台北市北投區中央北路四段515巷3弄1號1樓,4.2,1165,121.4686779,25.1278788,台北市 北投區
ChIJgcXkf1CuQjQRc3SOGvEDkvk,大戶屋新北投店,112台灣台北市北投區泉源路12號2樓之1,4.2,1378,121.504345,25.137063,台北市 北投區
ChIJ-wpgilGuQjQRSXGg9sH8RtY,粟家牛肉麵 總店,112台灣台北市北投區永興路一段2號,4.2,3298,121.4993941,25.1386775,台北市 北投區
ChIJpYd6QkWuQjQRB3XO_o5xjMw,輕鬆餐廳,112台灣台北市北投區中和街12號,4.1,845,121.5034323,25.1376645,台北市 北投區
ChIJlVAfvnKvQjQRptho33uDf_4,找午倉Brunch,112台灣台北市北投區大度路三段296巷42號1樓,4.3,937,121.4670724,25.1246119,台北市 北投區
ChIJNUiLjgmvQjQRgcy4ClGtZko,許多肉創意食堂,112台灣台北市北投區大興街65號,4.5,330,121.5006954,25.1307201,台北市 北投區
ChIJOR9cXlauQjQRbBibwYbyXE0,義法廚房,112台灣台北市北投區大興街24巷6弄4號,4.5,370,121.4986266,25.1291002,台北市 北投區
ChIJZ_zRvS-uQjQRNIihu4lloDA,紅磚厝,112台灣台北市北投區復興三路500號,4.7,224,121.5012692,25.1596987,台北市 北投區
ChIJCbPm6GyvQjQRPFH7PPTKpks,丼布狸居食屋(餐點售完會提早休息，如接近休息時間要來用餐，建議先打電話),112台灣台北市北投區知行路292巷2號一樓,4.4,995,121.4676791,25.1216508,台北市 北投區
ChIJKSEgYwiuQjQR7ae77MHN6U4,七窟餐廳,112台灣台北市北投區湖底路7之1號,4.1,767,121.5341002,25.1496933,台北市 北投區
ChIJgW7nPkWuQjQRGwTLuQU2QaI,拾米屋咖哩 - SheMe House Curry,112台灣台北市北投區泉源路12號右側號,4.1,1007,121.504345,25.137063,台北市 北投區
ChIJveQ2U-avQjQREcWgy_3djjY,貳房 頂級鍋物,112台灣台北市北投區大業路717-2號1樓,4.7,911,121.5019167,25.1373972,台北市 北投區
ChIJQwXI52mvQjQRCMFnpsUhxFw,長生塩人 北投車站,112009台灣台北市北投區育仁路8巷3號,4.8,3456,121.4987251,25.1327138,台北市 北投區
ChIJc9_oV4evQjQRa23dxneAEAQ,富順樓 - 北投店,112台灣台北市北投區中央北路二段5號,4,532,121.4962581,25.1363758,台北市 北投區
ChIJa-12036vQjQRgFElbYWf-Ms,老北投 北投捷運店,112台灣台北市北投區光明路2巷5號,4.1,495,121.4992251,25.1317813,台北市 北投區
ChIJu7WWhqWvQjQRcJlYRUwHaZo,吉豚屋 石牌店,112台灣台北市北投區石牌路二段19號,4.8,6309,121.515385,25.1158597,台北市 北投區
ChIJ29oh1Y2uQjQRu781QHam1hA,糧田,112台灣台北市北投區懷德街77號,4.7,316,121.5195943,25.1136689,台北市 北投區
ChIJKZs6KkWuQjQRW77NGmR6YQY,北投新上享餐廳,112台灣台北市北投區光明路226號,3.7,1230,121.5054092,25.1359711,台北市 北投區
ChIJxULym_SuQjQRQ7nEiSrGRm8,傳承茶蝦飯 我家客家小館,112台灣台北市北投區中央南路二段14-1號捷運奇岩站,4.2,1288,121.5000746,25.1270323,台北市 北投區
ChIJMVd-506uQjQRBZpD43rAToo,好聚會日式料理,112台灣台北市北投區大同街349號,4.3,443,121.4993461,25.1410936,台北市 北投區
ChIJqcTs72muQjQRZrBTzCnlQVs,歐陸餐廳 C'est Bon - 北投麗禧溫泉酒店 Grand View Resort Beitou,112台灣台北市北投區幽雅路30號,4.6,254,121.5149566,25.1380592,台北市 北投區
ChIJK6DAeVCuQjQRaf0HHeCGHfc,轉角小市場,112台灣台北市北投區光明路148-1號,4.6,169,121.5024783,25.1343645,台北市 北投區
ChIJ2Q7C2PquQjQRzuQuQV7Nm9w,陽明山竹子湖故鄉海芋農園-附設餐廳,112台灣台北市北投區竹子湖路海芋大道,4.5,4144,121.5329264,25.1738738,台北市 北投區
ChIJAzYuPUWuQjQRTlPsow9JKf0,满来温泉拉麵 man-lai,112台灣台北市北投區中和街30號,3.9,4368,121.5030183,25.1379085,台北市 北投區
ChIJfVg9VFGuQjQR3OXOjpHCw5s,阿馬非餐廳,112台灣台北市北投區大業路516巷2號,4.3,2741,121.4973049,25.1325999,台北市 北投區
ChIJfXbxu0-uQjQRX2zumepE6ZU,北投36私房麵,112台灣台北市北投區雙全街36號,4.5,417,121.5009495,25.1385002,台北市 北投區
ChIJCVkZn_SuQjQRLWzrQk6rC-4,禾竹私房料理（預約制）,112台灣台北市北投區西安街二段115號,4.8,558,121.5124688,25.1184118,台北市 北投區
ChIJq4Y5Dk-uQjQRdVnlhQuZcoI,家聚Brunch,112台灣台北市北投區中和街258號,4.2,259,121.500809,25.1400454,台北市 北投區
ChIJMS0V1s-vQjQR5_38BIspw7g,滿足溫泉拉麵,112台灣台北市北投區中山路1之8號,4.2,8542,121.504872,25.1370212,台北市 北投區
ChIJObAPmYyuQjQRpFI6mLHcmT0,水龜伯古早味,112台灣台北市北投區石牌路二段75巷8號,4.3,7920,121.5158233,25.1169022,台北市 北投區
ChIJe3eA6VauQjQRFuDwSEBoX9w,樂雅樂餐廳 北投店,112台灣台北市北投區北投路二段9號,3.8,2455,121.4988681,25.1305353,台北市 北投區
ChIJ1dx74VeuQjQR99Z9D4Od7q4,Mina 創意廚房.咖啡,112台灣台北市北投區崇仁路一段77號1樓,4.2,820,121.5016479,25.1261648,台北市 北投區
ChIJx1ZlCtavQjQRS-739JkUhvQ,Creative Pasta 創義麵 石牌店,112台灣台北市北投區石牌路二段88號,4.4,1553,121.5164481,25.1169631,台北市 北投區
ChIJxYT9xlGuQjQRcOe6AcacQoI,拾米屋 SheMe house,112台灣台北市北投區大同街153號一號倉庫,4.2,1378,121.498977,25.1360203,台北市 北投區
ChIJVwidem-sQjQRNq1w2eqA4jU,飯BAR 內湖創始店,114台灣台北市內湖區內湖路一段360巷2號,4.4,2936,121.5704848,25.0811667,台北市 內湖區
ChIJn5YawzitQjQRUaq8-23eaWQ,九井自慢料理,114台灣台北市內湖區洲子街118號1樓,4.6,741,121.5688107,25.080754,台北市 內湖區
ChIJL25qhuqsQjQR7JV6vxpbgok,饗趣31義式景觀餐廳,114台灣台北市內湖區成功路五段31號,4.4,3747,121.6040391,25.0826774,台北市 內湖區
ChIJ--MWv0GtQjQRyoI54_BoueY,共味食光,114台灣台北市內湖區成功路五段462號3樓,4.8,692,121.6064016,25.0733914,台北市 內湖區
ChIJsWOmhR2tQjQRgPY7G12PxgU,Missing Donna,11445台灣台北市內湖區內湖路一段323巷4弄6號,4.7,254,121.5677116,25.0827016,台北市 內湖區
ChIJnz3eGV2tQjQRlo-LLlBpPIw,Fogant,114台灣台北市內湖區民權東路六段200號1樓,4.7,167,121.5953915,25.0682623,台北市 內湖區
ChIJ27QZUW6sQjQRKdZidoV-nAY,Marcus老倉庫內湖店,114台灣台北市內湖區瑞光路583巷25號1樓,4.4,6223,121.5679453,25.0807552,台北市 內湖區
ChIJ5-09PB2tQjQRxn5hRz87wV4,Tierra Casa Restaurant-台北內湖西餐廳 在地食材創意料理 價格訂位推薦 義式法式料理 2025人氣必吃美食 精品茶葉咖啡 聚餐親子餐廳 PTT Dcard,114台灣台北市內湖區金龍路177號,4.6,413,121.5885817,25.0867225,台北市 內湖區
ChIJL1eKp42tQjQRGJUTlorzFIk,布納咖啡館 內湖館｜網美餐廳｜下午茶｜早午餐｜聚餐｜慶生｜包場｜包廂,114台灣台北市內湖區民權東路六段137號,4.6,4561,121.5942007,25.069127,台北市 內湖區
ChIJncAQtGGsQjQR88wpyzdS0dg,大湖餐館 內湖,114台灣台北市內湖區內湖路二段103巷76號,4.3,1246,121.5809233,25.083063,台北市 內湖區
ChIJN6ooZWWsQjQRrI4es2-1JXY,Knock Knock Heaven 洲子店,11493台灣台北市內湖區洲子街78號,4.5,2033,121.5718563,25.0795631,台北市 內湖區
ChIJfepvyousQjQRq2rFXvS-esU,象園咖啡內湖店,114台灣台北市內湖區內湖路二段192號,4.2,5867,121.5857379,25.080771,台北市 內湖區
ChIJGVsm-nutQjQRJdthl8xMhuI,味屋私廚 民權店,114台灣台北市內湖區民權東路六段15巷16號2樓,4.8,145,121.5787853,25.0680855,台北市 內湖區
ChIJdz5THC-tQjQRFaDw0R5VtSw,京園會館餐廳,114台灣台北市內湖區成功路二段512號,4.6,410,121.589654,25.074194,台北市 內湖區
ChIJecvGN2msQjQROxrobkAqz_E,百魚鮮食屋,114台灣台北市內湖區內湖路一段285巷65弄13號一樓,4.6,1865,121.5675083,25.0844471,台北市 內湖區
ChIJc-_1Bo2sQjQRYH4iH8hugo0,澄食小人屋《湖光店》台北日本料理 台北丼飯 內湖美食 內湖餐廳 內湖日本料理 內湖生魚片 內湖日本料理 內湖壽司 內湖外送美食,114台灣台北市內湖區成功路四段41巷1號,4.3,1388,121.5917555,25.0811209,台北市 內湖區
ChIJLa98GXKtQjQRxQ58Wwem0NI,PASTAIO 手工義大利麵 內湖店,114台灣台北市內湖區瑞光路584號,4.3,1881,121.5662402,25.0801099,台北市 內湖區
ChIJpffEL-2sQjQR8QGHG2t4hJo,巴西里小館,114台灣台北市內湖區金湖路24號,4.3,645,121.5962573,25.083047,台北市 內湖區
ChIJBQCOmmStQjQR0DvynmAtv7c,P.Ming泰式廚坊,114台灣台北市內湖區內湖路一段600巷2號,4.4,1308,121.5781478,25.078571,台北市 內湖區
ChIJ28TUe8OtQjQRlMc9-UkySZw,澎派海鮮餐廳,114064台灣台北市內湖區洲子街68號,4.8,1003,121.5719535,25.0792022,台北市 內湖區
ChIJ-_bMiiitQjQRVwXUA-8CaPs,四川龍府,114台灣台北市內湖區民權東路六段286號,4.8,3777,121.6052076,25.0723058,台北市 內湖區
ChIJlYMk94ysQjQRqSh6co2-EmM,農耕車石頭火鍋,114台灣台北市內湖區成功路三段174巷22號,4.8,4818,121.5903563,25.081483,台北市 內湖區
ChIJf7GXDoKsQjQR4nMbSjRnH0U,共樂遊 內湖店,114台灣台北市內湖區石潭路145號1樓,4.5,2799,121.5890921,25.0639935,台北市 內湖區
ChIJkaCpC72sQjQRZWZG53Rs2Og,沐對 MoonDay 義式小廚房,114台灣台北市內湖區民權東路六段296巷36號,4.5,1303,121.6070726,25.0717553,台北市 內湖區
ChIJsUmIIBJTXTQRT3jCnWh3OQI,FACILE 法斯樂,114台灣台北市內湖區大湖山莊街209號,4.6,324,121.600237,25.0883888,台北市 內湖區
ChIJu29qbG6sQjQR2F7y-lbBkqY,Extension 1 by 橘色,114台灣台北市內湖區瑞光路631號1樓,4.5,1660,121.5663929,25.0805183,台北市 內湖區
ChIJVXgCnAqtQjQRagt6vbYKzXE,麵匡匡拉麵食堂 內湖金湖店,114台灣台北市內湖區金湖路396號1樓,4.8,1349,121.6051694,25.0736599,台北市 內湖區
ChIJ236CbfKrQjQRgGCx_Huorig,88會館-郭董私房菜,114台灣台北市內湖區民善街88號5樓-2,4.8,90,121.5749954,25.0601551,台北市 內湖區
ChIJT5DCioGsQjQRbQedv2ZyHgA,Home Garden餐廳-昇恆昌旗艦店,11469台灣台北市內湖區金莊路129號5F,4.7,762,121.5881273,25.0642384,台北市 內湖區
ChIJBao-TG6sQjQRSPZBdnvF7Bw,巷上食璞川菜客家菜,114台灣台北市內湖區瑞光路513巷22弄15號,4.2,1287,121.5686062,25.0801366,台北市 內湖區
ChIJdUh_TNGtQjQRQVbtYiPl_1w,小庭院泰食/內湖美食/餐廳/泰國料理/Restaurants,114台灣台北市內湖區江南街71巷16弄50號,4.5,316,121.5780075,25.0757671,台北市 內湖區
ChIJ0SWCQk-tQjQRNhAexjHgLBg,澄食小人屋2《金龍店》內湖美食 內湖restaurant 內湖日本料理 內湖生魚片 內湖日本料理 內湖壽司,114台灣台北市內湖區成功路四段208號,4.2,477,121.5956946,25.0844722,台北市 內湖區
ChIJGU76QnusQjQRAD2eqE5ds4A,Moooon River Cafe & Books,114台灣台北市內湖區瑞光路218號,4.3,1677,121.5760439,25.0754559,台北市 內湖區
ChIJs5ToK_ysQjQRMZ9TlqXBMSs,穠舍田園咖啡 餐廳 休閒農場,114台灣台北市內湖區碧山路38號,4.3,1439,121.588312,25.100437,台北市 內湖區
ChIJ9fOjOhKsQjQRL6BiIDTYm2M,豐 FOOD 海陸百匯,10491台灣台北市中山區植福路8號1樓,4.5,24756,121.5549291,25.0836968,台北市 內湖區
ChIJuUtBISitQjQRakLTiX_fBFI,餉義饗廚坊,114台灣台北市內湖區東湖路113巷3弄3號1樓,4.6,720,121.615138,25.0691391,台北市 內湖區
